{
"type": "FeatureCollection",
"name": "groundwater_points_with_states",
"crs": { "type": "name", "properties": { "name": "urn:ogc:def:crs:OGC:1.3:CRS84" } },
"features": [
{ "type": "Feature", "properties": { "objectid": 14514, "station_code": "290915075430001", "station_name": "Hissar", "station_type": "Ground Water", "lat": 29.15416667, "long": 75.71666667, "basin_name": "Area of Inland drainage in Rajasthan Basin", "sub_basin_name": "Area of Inland drainage in Rajasthan", "created_date": "2019-03-22T05:30:00", "State_Name": "Haryana" }, "geometry": { "type": "Point", "coordinates": [ 75.716666669877128, 29.154166670257052 ] } },
{ "type": "Feature", "properties": { "objectid": 14542, "station_code": "291300075474501", "station_name": "Dhansu", "station_type": "Ground Water", "lat": 29.21666667, "long": 75.79583333, "basin_name": "Area of Inland drainage in Rajasthan Basin", "sub_basin_name": "Area of Inland drainage in Rajasthan", "created_date": "2019-03-22T05:30:00", "State_Name": "Haryana" }, "geometry": { "type": "Point", "coordinates": [ 75.795833329994622, 29.216666669734664 ] } },
{ "type": "Feature", "properties": { "objectid": 14547, "station_code": "291300075313001", "station_name": "Basra", "station_type": "Ground Water", "lat": 29.21666667, "long": 75.525, "basin_name": "Area of Inland drainage in Rajasthan Basin", "sub_basin_name": "Area of Inland drainage in Rajasthan", "created_date": "2019-03-22T05:30:00", "State_Name": "Haryana" }, "geometry": { "type": "Point", "coordinates": [ 75.524999999904082, 29.216666670272033 ] } },
{ "type": "Feature", "properties": { "objectid": 14548, "station_code": "291315075325001", "station_name": "Kirtan", "station_type": "Ground Water", "lat": 29.22083333, "long": 75.54722222, "basin_name": "Area of Inland drainage in Rajasthan Basin", "sub_basin_name": "Area of Inland drainage in Rajasthan", "created_date": "2019-03-22T05:30:00", "State_Name": "Haryana" }, "geometry": { "type": "Point", "coordinates": [ 75.547222219497741, 29.220833330405835 ] } },
{ "type": "Feature", "properties": { "objectid": 14563, "station_code": "291525075474001", "station_name": "Juglan", "station_type": "Ground Water", "lat": 29.25694444, "long": 75.79444444000001, "basin_name": "Area of Inland drainage in Rajasthan Basin", "sub_basin_name": "Area of Inland drainage in Rajasthan", "created_date": "2019-03-22T05:30:00", "State_Name": "Haryana" }, "geometry": { "type": "Point", "coordinates": [ 75.794444440455308, 29.256944439781918 ] } },
{ "type": "Feature", "properties": { "objectid": 14580, "station_code": "291700075472201", "station_name": "Behbalpur-Pz", "station_type": "Ground Water", "lat": 29.28333333, "long": 75.78944444, "basin_name": "Area of Inland drainage in Rajasthan Basin", "sub_basin_name": "Area of Inland drainage in Rajasthan", "created_date": "2019-03-22T05:30:00", "State_Name": "Haryana" }, "geometry": { "type": "Point", "coordinates": [ 75.78944443958305, 29.28333332980797 ] } },
{ "type": "Feature", "properties": { "objectid": 14583, "station_code": "291720075542501", "station_name": "Rajli Cross", "station_type": "Ground Water", "lat": 29.28888889, "long": 75.90694444, "basin_name": "Area of Inland drainage in Rajasthan Basin", "sub_basin_name": "Area of Inland drainage in Rajasthan", "created_date": "2019-03-22T05:30:00", "State_Name": "Haryana" }, "geometry": { "type": "Point", "coordinates": [ 75.906944439550713, 29.288888890317523 ] } },
{ "type": "Feature", "properties": { "objectid": 14593, "station_code": "291800075480001", "station_name": "Kirori", "station_type": "Ground Water", "lat": 29.3, "long": 75.8, "basin_name": "Area of Inland drainage in Rajasthan Basin", "sub_basin_name": "Area of Inland drainage in Rajasthan", "created_date": "2019-03-22T05:30:00", "State_Name": "Haryana" }, "geometry": { "type": "Point", "coordinates": [ 75.800000000009376, 29.299999999931984 ] } },
{ "type": "Feature", "properties": { "objectid": 14596, "station_code": "291815075250001", "station_name": "Sadalpur", "station_type": "Ground Water", "lat": 29.30416667, "long": 75.41666667, "basin_name": "Area of Inland drainage in Rajasthan Basin", "sub_basin_name": "Area of Inland drainage in Rajasthan", "created_date": "2019-03-22T05:30:00", "State_Name": "Haryana" }, "geometry": { "type": "Point", "coordinates": [ 75.416666670322357, 29.3041666699365 ] } },
{ "type": "Feature", "properties": { "objectid": 14615, "station_code": "292215075551501", "station_name": "Barwala1", "station_type": "Ground Water", "lat": 29.37083333, "long": 75.92083333, "basin_name": "Area of Inland drainage in Rajasthan Basin", "sub_basin_name": "Area of Inland drainage in Rajasthan", "created_date": "2019-03-22T05:30:00", "State_Name": "Haryana" }, "geometry": { "type": "Point", "coordinates": [ 75.920833330470273, 29.370833330109591 ] } },
{ "type": "Feature", "properties": { "objectid": 14617, "station_code": "292222075452501", "station_name": "Kanoh-Pz", "station_type": "Ground Water", "lat": 29.37277778, "long": 75.75694444, "basin_name": "Area of Inland drainage in Rajasthan Basin", "sub_basin_name": "Area of Inland drainage in Rajasthan", "created_date": "2019-03-22T05:30:00", "State_Name": "Haryana" }, "geometry": { "type": "Point", "coordinates": [ 75.756944439655101, 29.372777779592088 ] } },
{ "type": "Feature", "properties": { "objectid": 14621, "station_code": "292312075550001", "station_name": "Barwala-Pz", "station_type": "Ground Water", "lat": 29.38666667, "long": 75.91666667, "basin_name": "Area of Inland drainage in Rajasthan Basin", "sub_basin_name": "Area of Inland drainage in Rajasthan", "created_date": "2019-03-22T05:30:00", "State_Name": "Haryana" }, "geometry": { "type": "Point", "coordinates": [ 75.91666666951329, 29.386666669747811 ] } },
{ "type": "Feature", "properties": { "objectid": 14631, "station_code": "292430075410001", "station_name": "Samani", "station_type": "Ground Water", "lat": 29.40833333, "long": 75.68333333, "basin_name": "Area of Inland drainage in Rajasthan Basin", "sub_basin_name": "Area of Inland drainage in Rajasthan", "created_date": "2019-03-22T05:30:00", "State_Name": "Haryana" }, "geometry": { "type": "Point", "coordinates": [ 75.68333332971892, 29.408333330317788 ] } },
{ "type": "Feature", "properties": { "objectid": 14635, "station_code": "292448075194001", "station_name": "Mehu Wala Pz", "station_type": "Ground Water", "lat": 29.41333333, "long": 75.32777778000001, "basin_name": "Indus (Up to border) Basin", "sub_basin_name": "Ghaghar and others", "created_date": "2019-03-22T05:30:00", "State_Name": "Haryana" }, "geometry": { "type": "Point", "coordinates": [ 75.327777779841909, 29.413333329786219 ] } },
{ "type": "Feature", "properties": { "objectid": 14641, "station_code": "292615075443001", "station_name": "Nahla", "station_type": "Ground Water", "lat": 29.4375, "long": 75.74166667, "basin_name": "Area of Inland drainage in Rajasthan Basin", "sub_basin_name": "Area of Inland drainage in Rajasthan", "created_date": "2019-03-22T05:30:00", "State_Name": "Haryana" }, "geometry": { "type": "Point", "coordinates": [ 75.741666670259562, 29.437500000000483 ] } },
{ "type": "Feature", "properties": { "objectid": 14650, "station_code": "292645075330001", "station_name": "Badopal", "station_type": "Ground Water", "lat": 29.44583333, "long": 75.55, "basin_name": "Indus (Up to border) Basin", "sub_basin_name": "Ghaghar and others", "created_date": "2019-03-22T05:30:00", "State_Name": "Haryana" }, "geometry": { "type": "Point", "coordinates": [ 75.550000000304962, 29.44583333025005 ] } },
{ "type": "Feature", "properties": { "objectid": 14668, "station_code": "292832075364001", "station_name": "Khajuri Jatti-Pz", "station_type": "Ground Water", "lat": 29.47555556, "long": 75.61111111, "basin_name": "Indus (Up to border) Basin", "sub_basin_name": "Ghaghar and others", "created_date": "2019-03-22T05:30:00", "State_Name": "Haryana" }, "geometry": { "type": "Point", "coordinates": [ 75.611111110239023, 29.475555559996724 ] } },
{ "type": "Feature", "properties": { "objectid": 14671, "station_code": "292955075500001", "station_name": "Sohu", "station_type": "Ground Water", "lat": 29.49861111, "long": 75.83333333, "basin_name": "Area of Inland drainage in Rajasthan Basin", "sub_basin_name": "Area of Inland drainage in Rajasthan", "created_date": "2019-03-22T05:30:00", "State_Name": "Haryana" }, "geometry": { "type": "Point", "coordinates": [ 75.833333330208774, 29.498611110292472 ] } },
{ "type": "Feature", "properties": { "objectid": 14679, "station_code": "293015075384501", "station_name": "Jandli Kalan", "station_type": "Ground Water", "lat": 29.50416667, "long": 75.64583333, "basin_name": "Indus (Up to border) Basin", "sub_basin_name": "Ghaghar and others", "created_date": "2019-03-22T05:30:00", "State_Name": "Haryana" }, "geometry": { "type": "Point", "coordinates": [ 75.645833330316179, 29.504166669870322 ] } },
{ "type": "Feature", "properties": { "objectid": 14691, "station_code": "293400075344001", "station_name": "Bhuthan Kalan- Pz", "station_type": "Ground Water", "lat": 29.56666667, "long": 75.57777778000001, "basin_name": "Indus (Up to border) Basin", "sub_basin_name": "Ghaghar and others", "created_date": "2019-03-22T05:30:00", "State_Name": "Haryana" }, "geometry": { "type": "Point", "coordinates": [ 75.577777780172894, 29.566666670088487 ] } },
{ "type": "Feature", "properties": { "objectid": 14700, "station_code": "293650075531501", "station_name": "Nangla-DW", "station_type": "Ground Water", "lat": 29.61388889, "long": 75.8875, "basin_name": "Area of Inland drainage in Rajasthan Basin", "sub_basin_name": "Area of Inland drainage in Rajasthan", "created_date": "2019-03-22T05:30:00", "State_Name": "Haryana" }, "geometry": { "type": "Point", "coordinates": [ 75.88749999973686, 29.613888889635145 ] } },
{ "type": "Feature", "properties": { "objectid": 14702, "station_code": "293628075323001", "station_name": "Aharwan M", "station_type": "Ground Water", "lat": 29.60777778, "long": 75.54166667, "basin_name": "Indus (Up to border) Basin", "sub_basin_name": "Ghaghar and others", "created_date": "2019-03-22T05:30:00", "State_Name": "Haryana" }, "geometry": { "type": "Point", "coordinates": [ 75.54166667033634, 29.607777780387391 ] } },
{ "type": "Feature", "properties": { "objectid": 14703, "station_code": "293710075561501", "station_name": "Samain", "station_type": "Ground Water", "lat": 29.61944444, "long": 75.9375, "basin_name": "Area of Inland drainage in Rajasthan Basin", "sub_basin_name": "Area of Inland drainage in Rajasthan", "created_date": "2019-03-22T05:30:00", "State_Name": "Haryana" }, "geometry": { "type": "Point", "coordinates": [ 75.9375000000977, 29.61944444005702 ] } },
{ "type": "Feature", "properties": { "objectid": 14727, "station_code": "294115075344001", "station_name": "Ratia", "station_type": "Ground Water", "lat": 29.6875, "long": 75.57777778000001, "basin_name": "Indus (Up to border) Basin", "sub_basin_name": "Ghaghar and others", "created_date": "2019-03-22T05:30:00", "State_Name": "Haryana" }, "geometry": { "type": "Point", "coordinates": [ 75.577777779798907, 29.68749999996411 ] } },
{ "type": "Feature", "properties": { "objectid": 14733, "station_code": "294220075582001", "station_name": "Kalwan", "station_type": "Ground Water", "lat": 29.70555556, "long": 75.97222222000001, "basin_name": "Area of Inland drainage in Rajasthan Basin", "sub_basin_name": "Area of Inland drainage in Rajasthan", "created_date": "2019-03-22T05:30:00", "State_Name": "Haryana" }, "geometry": { "type": "Point", "coordinates": [ 75.972222220416825, 29.70555556036598 ] } },
{ "type": "Feature", "properties": { "objectid": 14734, "station_code": "294215075534501", "station_name": "Tohana", "station_type": "Ground Water", "lat": 29.70416667, "long": 75.89583333, "basin_name": "Indus (Up to border) Basin", "sub_basin_name": "Ghaghar and others", "created_date": "2019-03-22T05:30:00", "State_Name": "Haryana" }, "geometry": { "type": "Point", "coordinates": [ 75.895833329933211, 29.704166669899013 ] } },
{ "type": "Feature", "properties": { "objectid": 14762, "station_code": "294430075114501", "station_name": "Rori", "station_type": "Ground Water", "lat": 29.74166667, "long": 75.19583333, "basin_name": "Indus (Up to border) Basin", "sub_basin_name": "Ghaghar and others", "created_date": "2019-03-22T05:30:00", "State_Name": "Haryana" }, "geometry": { "type": "Point", "coordinates": [ 75.195833330454448, 29.741666670152718 ] } },
{ "type": "Feature", "properties": { "objectid": 14797, "station_code": "294930075003001", "station_name": "Taruwana", "station_type": "Ground Water", "lat": 29.825, "long": 75.00833333, "basin_name": "Indus (Up to border) Basin", "sub_basin_name": "Ghaghar and others", "created_date": "2019-03-22T05:30:00", "State_Name": "Haryana" }, "geometry": { "type": "Point", "coordinates": [ 75.008333330437793, 29.825000000382222 ] } },
{ "type": "Feature", "properties": { "objectid": 14802, "station_code": "295020074592001", "station_name": "Kalanwali Mandi-Pz", "station_type": "Ground Water", "lat": 29.83888889, "long": 74.98888889, "basin_name": "Indus (Up to border) Basin", "sub_basin_name": "Sutlaj Lower", "created_date": "2019-03-22T05:30:00", "State_Name": "Haryana" }, "geometry": { "type": "Point", "coordinates": [ 74.98888888949179, 29.838888890344922 ] } },
{ "type": "Feature", "properties": { "objectid": 14806, "station_code": "295100074590001", "station_name": "Mithri", "station_type": "Ground Water", "lat": 29.85, "long": 74.98333333, "basin_name": "Indus (Up to border) Basin", "sub_basin_name": "Sutlaj Lower", "created_date": "2019-03-22T05:30:00", "State_Name": "Haryana" }, "geometry": { "type": "Point", "coordinates": [ 74.983333330317961, 29.850000000427517 ] } },
{ "type": "Feature", "properties": { "objectid": 19201, "station_code": "CPCB_1024", "station_name": "GHAGGAR AT 100M D/S CONF. WITH R. SARASWATI (PATIALA) PUNJAB", "station_type": "Surface Water", "lat": 29.76562, "long": 75.743852, "basin_name": "Indus (Up to border) Basin", "sub_basin_name": "Ghaghar and others", "created_date": "2020-09-04T05:30:00", "State_Name": "Haryana" }, "geometry": { "type": "Point", "coordinates": [ 75.743851999496826, 29.765619999863823 ] } },
{ "type": "Feature", "properties": { "objectid": 19202, "station_code": "CPCB_30018", "station_name": "GHAGGAR AT CHANDRAPUR SIPHON (HARYANA)", "station_type": "Surface Water", "lat": 29.766164, "long": 75.743274, "basin_name": "Indus (Up to border) Basin", "sub_basin_name": "Ghaghar and others", "created_date": "2020-09-04T05:30:00", "State_Name": "Haryana" }, "geometry": { "type": "Point", "coordinates": [ 75.743273999537621, 29.766163999672674 ] } },
{ "type": "Feature", "properties": { "objectid": 19203, "station_code": "CPCB_1026", "station_name": "GHAGGAR GH-2 AT CHANDARPUR SYPHEN", "station_type": "Surface Water", "lat": 29.766164, "long": 75.743274, "basin_name": "Indus (Up to border) Basin", "sub_basin_name": "Ghaghar and others", "created_date": "2020-09-04T05:30:00", "State_Name": "Haryana" }, "geometry": { "type": "Point", "coordinates": [ 75.743273999537621, 29.766163999672674 ] } },
{ "type": "Feature", "properties": { "objectid": 19233, "station_code": "CPCB_1473", "station_name": "GHAGGAR AT RATANHERI D/S OF PATIALA NADI (AFTER CONFL.) PUNJAB", "station_type": "Surface Water", "lat": 30.079758, "long": 76.263251, "basin_name": "Indus (Up to border) Basin", "sub_basin_name": "Ghaghar and others", "created_date": "2020-09-04T05:30:00", "State_Name": "Haryana" }, "geometry": { "type": "Point", "coordinates": [ 76.263251000102699, 30.079757999621879 ] } },
{ "type": "Feature", "properties": { "objectid": 19236, "station_code": "CPCB_4837", "station_name": "TUBEWELL NO. 2 NEAR GURUDWARA VILLAGE BHATIA", "station_type": "Ground Water", "lat": 30.082977, "long": 76.263267, "basin_name": "Indus (Up to border) Basin", "sub_basin_name": "Ghaghar and others", "created_date": "2020-09-04T05:30:00", "State_Name": "Haryana" }, "geometry": { "type": "Point", "coordinates": [ 76.263267000200671, 30.082976999582478 ] } },
{ "type": "Feature", "properties": { "objectid": 9783, "station_code": "225030085194501", "station_name": "Bandgaon", "station_type": "Ground Water", "lat": 22.84166667, "long": 85.32916667000001, "basin_name": "Brahmani and Baitarni Basin", "sub_basin_name": "Brahmani", "created_date": "2019-03-22T05:30:00", "State_Name": "Jharkhand" }, "geometry": { "type": "Point", "coordinates": [ 85.329166669907067, 22.841666669616313 ] } },
{ "type": "Feature", "properties": { "objectid": 9910, "station_code": "225750085170001", "station_name": "Murhu", "station_type": "Ground Water", "lat": 22.96388889, "long": 85.28333333, "basin_name": "Brahmani and Baitarni Basin", "sub_basin_name": "Brahmani", "created_date": "2019-03-22T05:30:00", "State_Name": "Jharkhand" }, "geometry": { "type": "Point", "coordinates": [ 85.283333330245853, 22.963888890378289 ] } },
{ "type": "Feature", "properties": { "objectid": 10150, "station_code": "231106084460801", "station_name": "Sisai", "station_type": "Ground Water", "lat": 23.185, "long": 84.76888889, "basin_name": "Brahmani and Baitarni Basin", "sub_basin_name": "Brahmani", "created_date": "2019-03-22T05:30:00", "State_Name": "Jharkhand" }, "geometry": { "type": "Point", "coordinates": [ 84.768888889600689, 23.184999999877189 ] } },
{ "type": "Feature", "properties": { "objectid": 10184, "station_code": "231124085305801", "station_name": "Taimara", "station_type": "Ground Water", "lat": 23.19, "long": 85.51611111, "basin_name": "Subernarekha Basin", "sub_basin_name": "Subernarekha", "created_date": "2019-03-22T05:30:00", "State_Name": "Jharkhand" }, "geometry": { "type": "Point", "coordinates": [ 85.516111109565671, 23.189999999635198 ] } },
{ "type": "Feature", "properties": { "objectid": 10244, "station_code": "231610084331501", "station_name": "Ghagra", "station_type": "Ground Water", "lat": 23.26944444, "long": 84.55416667, "basin_name": "Brahmani and Baitarni Basin", "sub_basin_name": "Brahmani", "created_date": "2019-03-22T05:30:00", "State_Name": "Jharkhand" }, "geometry": { "type": "Point", "coordinates": [ 84.554166670423541, 23.269444440363074 ] } },
{ "type": "Feature", "properties": { "objectid": 10287, "station_code": "231659085215001", "station_name": "Namkom Bz Chowk", "station_type": "Ground Water", "lat": 23.28305556, "long": 85.36388889, "basin_name": "Subernarekha Basin", "sub_basin_name": "Subernarekha", "created_date": "2019-03-22T05:30:00", "State_Name": "Jharkhand" }, "geometry": { "type": "Point", "coordinates": [ 85.363888889807811, 23.283055560214368 ] } },
{ "type": "Feature", "properties": { "objectid": 10289, "station_code": "231820084422301", "station_name": "Nagfeni", "station_type": "Ground Water", "lat": 23.30555556, "long": 84.70638889, "basin_name": "Brahmani and Baitarni Basin", "sub_basin_name": "Brahmani", "created_date": "2019-03-22T05:30:00", "State_Name": "Jharkhand" }, "geometry": { "type": "Point", "coordinates": [ 84.706388890502282, 23.305555560199036 ] } },
{ "type": "Feature", "properties": { "objectid": 10318, "station_code": "231846085182101", "station_name": "Hatia1", "station_type": "Ground Water", "lat": 23.31277778, "long": 85.30583333, "basin_name": "Subernarekha Basin", "sub_basin_name": "Subernarekha", "created_date": "2019-03-22T05:30:00", "State_Name": "Jharkhand" }, "geometry": { "type": "Point", "coordinates": [ 85.305833330402592, 23.312777780398438 ] } },
{ "type": "Feature", "properties": { "objectid": 10335, "station_code": "231900085290001", "station_name": "Ormanji", "station_type": "Ground Water", "lat": 23.31666667, "long": 85.48333333, "basin_name": "Subernarekha Basin", "sub_basin_name": "Subernarekha", "created_date": "2019-03-22T05:30:00", "State_Name": "Jharkhand" }, "geometry": { "type": "Point", "coordinates": [ 85.48333333012593, 23.31666667019871 ] } },
{ "type": "Feature", "properties": { "objectid": 10358, "station_code": "232130084464501", "station_name": "Bhandara", "station_type": "Ground Water", "lat": 23.35833333, "long": 84.77916667, "basin_name": "Brahmani and Baitarni Basin", "sub_basin_name": "Brahmani", "created_date": "2019-03-22T05:30:00", "State_Name": "Jharkhand" }, "geometry": { "type": "Point", "coordinates": [ 84.779166670298906, 23.358333329849806 ] } },
{ "type": "Feature", "properties": { "objectid": 10389, "station_code": "232315084391501", "station_name": "Senha Bdo", "station_type": "Ground Water", "lat": 23.3875, "long": 84.65416667, "basin_name": "Brahmani and Baitarni Basin", "sub_basin_name": "Brahmani", "created_date": "2019-03-22T05:30:00", "State_Name": "Jharkhand" }, "geometry": { "type": "Point", "coordinates": [ 84.654166669883978, 23.387499999577919 ] } },
{ "type": "Feature", "properties": { "objectid": 10478, "station_code": "232800084420001", "station_name": "Lohardaga(pwdib", "station_type": "Ground Water", "lat": 23.46666667, "long": 84.7, "basin_name": "Brahmani and Baitarni Basin", "sub_basin_name": "Brahmani", "created_date": "2019-03-22T05:30:00", "State_Name": "Jharkhand" }, "geometry": { "type": "Point", "coordinates": [ 84.700000000235946, 23.466666669727207 ] } },
{ "type": "Feature", "properties": { "objectid": 10497, "station_code": "232846084424301", "station_name": "Lohardaga(Patra Toli)", "station_type": "Ground Water", "lat": 23.47944444, "long": 84.71194444, "basin_name": "Brahmani and Baitarni Basin", "sub_basin_name": "Brahmani", "created_date": "2019-03-22T05:30:00", "State_Name": "Jharkhand" }, "geometry": { "type": "Point", "coordinates": [ 84.711944439508528, 23.479444439659133 ] } },
{ "type": "Feature", "properties": { "objectid": 10544, "station_code": "233202084505201", "station_name": "Hinjla", "station_type": "Ground Water", "lat": 23.53388889, "long": 84.84777778, "basin_name": "Brahmani and Baitarni Basin", "sub_basin_name": "Brahmani", "created_date": "2019-03-22T05:30:00", "State_Name": "Jharkhand" }, "geometry": { "type": "Point", "coordinates": [ 84.847777779997699, 23.53388889009214 ] } },
{ "type": "Feature", "properties": { "objectid": 10549, "station_code": "233211084485601", "station_name": "Kuru1", "station_type": "Ground Water", "lat": 23.53638889, "long": 84.81555556000001, "basin_name": "Brahmani and Baitarni Basin", "sub_basin_name": "Brahmani", "created_date": "2019-03-22T05:30:00", "State_Name": "Jharkhand" }, "geometry": { "type": "Point", "coordinates": [ 84.815555559570001, 23.536388890309816 ] } },
{ "type": "Feature", "properties": { "objectid": 10579, "station_code": "233327084484901", "station_name": "Rudh1", "station_type": "Ground Water", "lat": 23.5575, "long": 84.81361111, "basin_name": "Ganga Basin", "sub_basin_name": "Damodar", "created_date": "2019-03-22T05:30:00", "State_Name": "Jharkhand" }, "geometry": { "type": "Point", "coordinates": [ 84.81361110990413, 23.55750000013466 ] } },
{ "type": "Feature", "properties": { "objectid": 10715, "station_code": "234030084444501", "station_name": "Chandwa", "station_type": "Ground Water", "lat": 23.675, "long": 84.74583333, "basin_name": "Ganga Basin", "sub_basin_name": "Damodar", "created_date": "2019-03-22T05:30:00", "State_Name": "Jharkhand" }, "geometry": { "type": "Point", "coordinates": [ 84.74583333030057, 23.675000000144625 ] } },
{ "type": "Feature", "properties": { "objectid": 10881, "station_code": "235000084474501", "station_name": "Balumath", "station_type": "Ground Water", "lat": 23.83333333, "long": 84.79583333, "basin_name": "Ganga Basin", "sub_basin_name": "Sone", "created_date": "2019-03-22T05:30:00", "State_Name": "Jharkhand" }, "geometry": { "type": "Point", "coordinates": [ 84.795833330248087, 23.833333330415865 ] } },
{ "type": "Feature", "properties": { "objectid": 10908, "station_code": "235130085014501", "station_name": "Tandwa", "station_type": "Ground Water", "lat": 23.85833333, "long": 85.02916667, "basin_name": "Ganga Basin", "sub_basin_name": "Damodar", "created_date": "2019-03-22T05:30:00", "State_Name": "Jharkhand" }, "geometry": { "type": "Point", "coordinates": [ 85.029166670068022, 23.858333329804314 ] } },
{ "type": "Feature", "properties": { "objectid": 10946, "station_code": "235330084483001", "station_name": "Barjatu", "station_type": "Ground Water", "lat": 23.89166667, "long": 84.80833333, "basin_name": "Ganga Basin", "sub_basin_name": "Sone", "created_date": "2019-03-22T05:30:00", "State_Name": "Jharkhand" }, "geometry": { "type": "Point", "coordinates": [ 84.808333329646487, 23.891666670415407 ] } },
{ "type": "Feature", "properties": { "objectid": 11001, "station_code": "235227086524301", "station_name": "Mihijam New", "station_type": "Ground Water", "lat": 23.87416667, "long": 86.87861111, "basin_name": "Ganga Basin", "sub_basin_name": "Bhagirathi and others (Ganga Lower)", "created_date": "2019-03-22T05:30:00", "State_Name": "Jharkhand" }, "geometry": { "type": "Point", "coordinates": [ 86.878611110258689, 23.874166670021651 ] } },
{ "type": "Feature", "properties": { "objectid": 11057, "station_code": "235500087100001", "station_name": "Kundahit", "station_type": "Ground Water", "lat": 23.91666667, "long": 87.16666667, "basin_name": "Ganga Basin", "sub_basin_name": "Bhagirathi and others (Ganga Lower)", "created_date": "2019-03-22T05:30:00", "State_Name": "Jharkhand" }, "geometry": { "type": "Point", "coordinates": [ 87.166666669651121, 23.916666670225162 ] } },
{ "type": "Feature", "properties": { "objectid": 11194, "station_code": "240145087253001", "station_name": "Raneswar", "station_type": "Ground Water", "lat": 24.02916667, "long": 87.425, "basin_name": "Ganga Basin", "sub_basin_name": "Bhagirathi and others (Ganga Lower)", "created_date": "2019-03-22T05:30:00", "State_Name": "Jharkhand" }, "geometry": { "type": "Point", "coordinates": [ 87.424999999502433, 24.029166670057663 ] } },
{ "type": "Feature", "properties": { "objectid": 11196, "station_code": "240245087091001", "station_name": "Nala", "station_type": "Ground Water", "lat": 24.04583333, "long": 87.15277778, "basin_name": "Ganga Basin", "sub_basin_name": "Bhagirathi and others (Ganga Lower)", "created_date": "2019-03-22T05:30:00", "State_Name": "Jharkhand" }, "geometry": { "type": "Point", "coordinates": [ 87.152777780013622, 24.045833329821157 ] } },
{ "type": "Feature", "properties": { "objectid": 11264, "station_code": "240630087191001", "station_name": "Masanjor", "station_type": "Ground Water", "lat": 24.10833333, "long": 87.31944444, "basin_name": "Ganga Basin", "sub_basin_name": "Bhagirathi and others (Ganga Lower)", "created_date": "2019-03-22T05:30:00", "State_Name": "Jharkhand" }, "geometry": { "type": "Point", "coordinates": [ 87.319444439725743, 24.108333330086012 ] } },
{ "type": "Feature", "properties": { "objectid": 11294, "station_code": "240930087111001", "station_name": "Masalia", "station_type": "Ground Water", "lat": 24.15833333, "long": 87.18611111, "basin_name": "Ganga Basin", "sub_basin_name": "Bhagirathi and others (Ganga Lower)", "created_date": "2019-03-22T05:30:00", "State_Name": "Jharkhand" }, "geometry": { "type": "Point", "coordinates": [ 87.186111110031291, 24.158333329622888 ] } },
{ "type": "Feature", "properties": { "objectid": 11349, "station_code": "241300087223001", "station_name": "Patabari", "station_type": "Ground Water", "lat": 24.21666667, "long": 87.375, "basin_name": "Ganga Basin", "sub_basin_name": "Bhagirathi and others (Ganga Lower)", "created_date": "2019-03-22T05:30:00", "State_Name": "Jharkhand" }, "geometry": { "type": "Point", "coordinates": [ 87.375000000113801, 24.21666666986787 ] } },
{ "type": "Feature", "properties": { "objectid": 11370, "station_code": "241400087280201", "station_name": "Sikaripara", "station_type": "Ground Water", "lat": 24.23333333, "long": 87.46722222, "basin_name": "Ganga Basin", "sub_basin_name": "Bhagirathi and others (Ganga Lower)", "created_date": "2019-03-22T05:30:00", "State_Name": "Jharkhand" }, "geometry": { "type": "Point", "coordinates": [ 87.467222220385892, 24.233333330095153 ] } },
{ "type": "Feature", "properties": { "objectid": 11386, "station_code": "241550087070001", "station_name": "Chikania", "station_type": "Ground Water", "lat": 24.26388889, "long": 87.11666667, "basin_name": "Ganga Basin", "sub_basin_name": "Bhagirathi and others (Ganga Lower)", "created_date": "2019-03-22T05:30:00", "State_Name": "Jharkhand" }, "geometry": { "type": "Point", "coordinates": [ 87.116666670410183, 24.263888889722576 ] } },
{ "type": "Feature", "properties": { "objectid": 11387, "station_code": "241600087040001", "station_name": "Kathikund", "station_type": "Ground Water", "lat": 24.26666667, "long": 87.06666667, "basin_name": "Ganga Basin", "sub_basin_name": "Bhagirathi and others (Ganga Lower)", "created_date": "2019-03-22T05:30:00", "State_Name": "Jharkhand" }, "geometry": { "type": "Point", "coordinates": [ 87.066666669744151, 24.266666670178036 ] } },
{ "type": "Feature", "properties": { "objectid": 11394, "station_code": "241600087150001", "station_name": "Dumka(db ib)", "station_type": "Ground Water", "lat": 24.26666667, "long": 87.25, "basin_name": "Ganga Basin", "sub_basin_name": "Bhagirathi and others (Ganga Lower)", "created_date": "2019-03-22T05:30:00", "State_Name": "Jharkhand" }, "geometry": { "type": "Point", "coordinates": [ 87.249999999843538, 24.266666670442866 ] } },
{ "type": "Feature", "properties": { "objectid": 11410, "station_code": "241800087001401", "station_name": "Palajori", "station_type": "Ground Water", "lat": 24.3, "long": 87.00388889, "basin_name": "Ganga Basin", "sub_basin_name": "Bhagirathi and others (Ganga Lower)", "created_date": "2019-03-22T05:30:00", "State_Name": "Jharkhand" }, "geometry": { "type": "Point", "coordinates": [ 87.003888890291776, 24.300000000118125 ] } },
{ "type": "Feature", "properties": { "objectid": 11438, "station_code": "241756087395701", "station_name": "Pakuria", "station_type": "Ground Water", "lat": 24.29888889, "long": 87.66583333, "basin_name": "Ganga Basin", "sub_basin_name": "Bhagirathi and others (Ganga Lower)", "created_date": "2019-03-22T05:30:00", "State_Name": "Jharkhand" }, "geometry": { "type": "Point", "coordinates": [ 87.665833329544569, 24.298888890278008 ] } },
{ "type": "Feature", "properties": { "objectid": 11441, "station_code": "017-DDASL\t", "station_name": "Maharo", "station_type": "Surface Water", "lat": 24.32361111, "long": 87.20222222, "basin_name": "Ganga Basin", "sub_basin_name": "Bhagirathi and others (Ganga Lower)", "created_date": "2020-11-05T05:30:00", "State_Name": "Jharkhand" }, "geometry": { "type": "Point", "coordinates": [ 87.202222222568395, 24.323611110711962 ] } },
{ "type": "Feature", "properties": { "objectid": 11446, "station_code": "242225086090001", "station_name": "Jamua pwd ib", "station_type": "Ground Water", "lat": 24.37361111, "long": 86.15, "basin_name": "Ganga Basin", "sub_basin_name": "Damodar", "created_date": "2019-03-22T05:30:00", "State_Name": "Jharkhand" }, "geometry": { "type": "Point", "coordinates": [ 86.149999999880677, 24.373611110061972 ] } },
{ "type": "Feature", "properties": { "objectid": 11456, "station_code": "242050087091001", "station_name": "Jama1", "station_type": "Ground Water", "lat": 24.34722222, "long": 87.15277778, "basin_name": "Ganga Basin", "sub_basin_name": "Bhagirathi and others (Ganga Lower)", "created_date": "2019-03-22T05:30:00", "State_Name": "Jharkhand" }, "geometry": { "type": "Point", "coordinates": [ 87.152777779735317, 24.347222220254029 ] } },
{ "type": "Feature", "properties": { "objectid": 11486, "station_code": "242305087041501", "station_name": "Jarmundi db.ib", "station_type": "Ground Water", "lat": 24.38472222, "long": 87.07083333, "basin_name": "Ganga Basin", "sub_basin_name": "Bhagirathi and others (Ganga Lower)", "created_date": "2019-03-22T05:30:00", "State_Name": "Jharkhand" }, "geometry": { "type": "Point", "coordinates": [ 87.070833329521676, 24.384722219697316 ] } },
{ "type": "Feature", "properties": { "objectid": 11511, "station_code": "242810085360001", "station_name": "Kodarma", "station_type": "Ground Water", "lat": 24.46944444, "long": 85.6, "basin_name": "Ganga Basin", "sub_basin_name": "Damodar", "created_date": "2019-03-22T05:30:00", "State_Name": "Jharkhand" }, "geometry": { "type": "Point", "coordinates": [ 85.60000000035059, 24.469444439824056 ] } },
{ "type": "Feature", "properties": { "objectid": 11528, "station_code": "242837086114401", "station_name": "Dumri", "station_type": "Ground Water", "lat": 24.47694444, "long": 86.19555556, "basin_name": "Ganga Basin", "sub_basin_name": "Damodar", "created_date": "2019-03-22T05:30:00", "State_Name": "Jharkhand" }, "geometry": { "type": "Point", "coordinates": [ 86.195555559715018, 24.476944440251064 ] } },
{ "type": "Feature", "properties": { "objectid": 11551, "station_code": "242810087073101", "station_name": "Nunihaat", "station_type": "Ground Water", "lat": 24.46944444, "long": 87.12527778, "basin_name": "Ganga Basin", "sub_basin_name": "Bhagirathi and others (Ganga Lower)", "created_date": "2019-03-22T05:30:00", "State_Name": "Jharkhand" }, "geometry": { "type": "Point", "coordinates": [ 87.125277780318967, 24.469444439540883 ] } },
{ "type": "Feature", "properties": { "objectid": 11554, "station_code": "243050086111501", "station_name": "Dewri", "station_type": "Ground Water", "lat": 24.51388889, "long": 86.1875, "basin_name": "Ganga Basin", "sub_basin_name": "Damodar", "created_date": "2019-03-22T05:30:00", "State_Name": "Jharkhand" }, "geometry": { "type": "Point", "coordinates": [ 86.187499999677485, 24.513888889787253 ] } },
{ "type": "Feature", "properties": { "objectid": 11576, "station_code": "243240086060201", "station_name": "Khijri", "station_type": "Ground Water", "lat": 24.54444444, "long": 86.10055556, "basin_name": "Ganga Basin", "sub_basin_name": "Gandak and others", "created_date": "2019-03-22T05:30:00", "State_Name": "Jharkhand" }, "geometry": { "type": "Point", "coordinates": [ 86.100555560191978, 24.544444439917235 ] } },
{ "type": "Feature", "properties": { "objectid": 11583, "station_code": "242930087293001", "station_name": "Gopikandar", "station_type": "Ground Water", "lat": 24.49166667, "long": 87.49166667, "basin_name": "Ganga Basin", "sub_basin_name": "Bhagirathi and others (Ganga Lower)", "created_date": "2019-03-22T05:30:00", "State_Name": "Jharkhand" }, "geometry": { "type": "Point", "coordinates": [ 87.49166667012986, 24.491666670445909 ] } },
{ "type": "Feature", "properties": { "objectid": 11600, "station_code": "243445086035801", "station_name": "Tisri", "station_type": "Ground Water", "lat": 24.57916667, "long": 86.06611111, "basin_name": "Ganga Basin", "sub_basin_name": "Gandak and others", "created_date": "2019-03-22T05:30:00", "State_Name": "Jharkhand" }, "geometry": { "type": "Point", "coordinates": [ 86.066111110430541, 24.579166670393388 ] } },
{ "type": "Feature", "properties": { "objectid": 11614, "station_code": "243155087340501", "station_name": "Amrapara", "station_type": "Ground Water", "lat": 24.53194444, "long": 87.56805556, "basin_name": "Ganga Basin", "sub_basin_name": "Bhagirathi and others (Ganga Lower)", "created_date": "2019-03-22T05:30:00", "State_Name": "Jharkhand" }, "geometry": { "type": "Point", "coordinates": [ 87.56805555952684, 24.531944440259462 ] } },
{ "type": "Feature", "properties": { "objectid": 11623, "station_code": "243315087150001", "station_name": "Ramgarh", "station_type": "Ground Water", "lat": 24.55416667, "long": 87.25, "basin_name": "Ganga Basin", "sub_basin_name": "Bhagirathi and others (Ganga Lower)", "created_date": "2019-03-22T05:30:00", "State_Name": "Jharkhand" }, "geometry": { "type": "Point", "coordinates": [ 87.24999999980129, 24.554166669583537 ] } },
{ "type": "Feature", "properties": { "objectid": 11634, "station_code": "243410087110501", "station_name": "Gamharia", "station_type": "Ground Water", "lat": 24.56944444, "long": 87.18472222, "basin_name": "Ganga Basin", "sub_basin_name": "Bhagirathi and others (Ganga Lower)", "created_date": "2019-03-22T05:30:00", "State_Name": "Jharkhand" }, "geometry": { "type": "Point", "coordinates": [ 87.18472221970147, 24.569444440470139 ] } },
{ "type": "Feature", "properties": { "objectid": 11690, "station_code": "244015087100001", "station_name": "Poraiyahaat", "station_type": "Ground Water", "lat": 24.67083333, "long": 87.16666667, "basin_name": "Ganga Basin", "sub_basin_name": "Gandak and others", "created_date": "2019-03-22T05:30:00", "State_Name": "Jharkhand" }, "geometry": { "type": "Point", "coordinates": [ 87.166666669513887, 24.670833330294467 ] } },
{ "type": "Feature", "properties": { "objectid": 11749, "station_code": "244530087220001", "station_name": "Sundar Pahari", "station_type": "Ground Water", "lat": 24.75833333, "long": 87.36666667, "basin_name": "Ganga Basin", "sub_basin_name": "Bhagirathi and others (Ganga Lower)", "created_date": "2019-03-22T05:30:00", "State_Name": "Jharkhand" }, "geometry": { "type": "Point", "coordinates": [ 87.366666669607994, 24.758333330060172 ] } },
{ "type": "Feature", "properties": { "objectid": 11797, "station_code": "245012087142001", "station_name": "Godda p.s.", "station_type": "Ground Water", "lat": 24.83666667, "long": 87.23888889, "basin_name": "Ganga Basin", "sub_basin_name": "Gandak and others", "created_date": "2019-03-22T05:30:00", "State_Name": "Jharkhand" }, "geometry": { "type": "Point", "coordinates": [ 87.238888889763388, 24.836666670245712 ] } },
{ "type": "Feature", "properties": { "objectid": 11867, "station_code": "245630087172001", "station_name": "Pathargama", "station_type": "Ground Water", "lat": 24.94166667, "long": 87.28888889, "basin_name": "Ganga Basin", "sub_basin_name": "Gandak and others", "created_date": "2019-03-22T05:30:00", "State_Name": "Jharkhand" }, "geometry": { "type": "Point", "coordinates": [ 87.288888890172103, 24.941666669980865 ] } },
{ "type": "Feature", "properties": { "objectid": 17333, "station_code": "CPCB_3915", "station_name": "KARO RIVER T BADBIL", "station_type": "Surface Water", "lat": 22.125072, "long": 85.365375, "basin_name": "Brahmani and Baitarni Basin", "sub_basin_name": "Brahmani", "created_date": "2020-09-04T05:30:00", "State_Name": "Jharkhand" }, "geometry": { "type": "Point", "coordinates": [ 85.365374999789282, 22.125071999570924 ] } },
{ "type": "Feature", "properties": { "objectid": 17383, "station_code": "CPCB_4747", "station_name": "KOINA RIVER MANOHARPUR W.S", "station_type": "Surface Water", "lat": 22.371809, "long": 85.202468, "basin_name": "Brahmani and Baitarni Basin", "sub_basin_name": "Brahmani", "created_date": "2020-09-04T05:30:00", "State_Name": "Jharkhand" }, "geometry": { "type": "Point", "coordinates": [ 85.202468000078241, 22.371808999882802 ] } },
{ "type": "Feature", "properties": { "objectid": 17385, "station_code": "CPCB_1036", "station_name": "KOEL AT MANOHARPUR AFTER MEETING KOINA RIVER D/S JHARKAND", "station_type": "Surface Water", "lat": 22.377636, "long": 85.190937, "basin_name": "Brahmani and Baitarni Basin", "sub_basin_name": "Brahmani", "created_date": "2020-09-04T05:30:00", "State_Name": "Jharkhand" }, "geometry": { "type": "Point", "coordinates": [ 85.190936999917255, 22.377635999766476 ] } },
{ "type": "Feature", "properties": { "objectid": 17648, "station_code": "CPCB_4084", "station_name": "SURBARNREKHA RIVER AT HATIA ROAD BRIDGE RANCHI", "station_type": "Surface Water", "lat": 23.283318, "long": 85.308705, "basin_name": "Subernarekha Basin", "sub_basin_name": "Subernarekha", "created_date": "2020-09-04T05:30:00", "State_Name": "Jharkhand" }, "geometry": { "type": "Point", "coordinates": [ 85.308704999630422, 23.283318000038339 ] } },
{ "type": "Feature", "properties": { "objectid": 17649, "station_code": "CPCB_4751", "station_name": "D/S SWARNREKHA RIVER NEAR HATIA ROAD BRIDGE RANCHI", "station_type": "Surface Water", "lat": 23.283231, "long": 85.3149, "basin_name": "Subernarekha Basin", "sub_basin_name": "Subernarekha", "created_date": "2020-09-04T05:30:00", "State_Name": "Jharkhand" }, "geometry": { "type": "Point", "coordinates": [ 85.314900000217591, 23.283230999656386 ] } },
{ "type": "Feature", "properties": { "objectid": 17650, "station_code": "CPCB_4752", "station_name": "SWARNREKHA RIVER NEAR OBERIA ROAD BRIDGE HATIA RANCH", "station_type": "Surface Water", "lat": 23.284349, "long": 85.318696, "basin_name": "Subernarekha Basin", "sub_basin_name": "Subernarekha", "created_date": "2020-09-04T05:30:00", "State_Name": "Jharkhand" }, "geometry": { "type": "Point", "coordinates": [ 85.318695999968497, 23.284348999580033 ] } },
{ "type": "Feature", "properties": { "objectid": 17652, "station_code": "CPCB_2395", "station_name": "SUBARNAREKHA AT HATIA DAM", "station_type": "Surface Water", "lat": 23.2907, "long": 85.255961, "basin_name": "Subernarekha Basin", "sub_basin_name": "Subernarekha", "created_date": "2020-09-04T05:30:00", "State_Name": "Jharkhand" }, "geometry": { "type": "Point", "coordinates": [ 85.25596100036708, 23.290700000331434 ] } },
{ "type": "Feature", "properties": { "objectid": 17670, "station_code": "CPCB_4750", "station_name": "ON SWARNREKHA RIVER NEAR INTAKE WELL HATIA RAILWAY", "station_type": "Surface Water", "lat": 23.331539, "long": 85.309964, "basin_name": "Subernarekha Basin", "sub_basin_name": "Subernarekha", "created_date": "2020-09-04T05:30:00", "State_Name": "Jharkhand" }, "geometry": { "type": "Point", "coordinates": [ 85.309963999971288, 23.331539000276834 ] } },
{ "type": "Feature", "properties": { "objectid": 17672, "station_code": "CPCB_2385", "station_name": "SUBARNAREKHA AT NAMKUM ROAD BRIDGE", "station_type": "Surface Water", "lat": 23.33402, "long": 85.359996, "basin_name": "Subernarekha Basin", "sub_basin_name": "Subernarekha", "created_date": "2020-09-04T05:30:00", "State_Name": "Jharkhand" }, "geometry": { "type": "Point", "coordinates": [ 85.359996000402575, 23.334020000369762 ] } },
{ "type": "Feature", "properties": { "objectid": 17676, "station_code": "CPCB_4749", "station_name": "ON SWARNREKHA RIVER  NEAR RING ROAD BRIDGE SEMBO NAGRI RANCHI", "station_type": "Surface Water", "lat": 23.341151, "long": 85.256725, "basin_name": "Subernarekha Basin", "sub_basin_name": "Subernarekha", "created_date": "2020-09-04T05:30:00", "State_Name": "Jharkhand" }, "geometry": { "type": "Point", "coordinates": [ 85.256725000303547, 23.341151000046839 ] } },
{ "type": "Feature", "properties": { "objectid": 17678, "station_code": "CPCB_4754", "station_name": "HARMU RIVER BEFORE METTING TO SWARNREKHA RIVER", "station_type": "Surface Water", "lat": 23.340315, "long": 85.359102, "basin_name": "Subernarekha Basin", "sub_basin_name": "Subernarekha", "created_date": "2020-09-04T05:30:00", "State_Name": "Jharkhand" }, "geometry": { "type": "Point", "coordinates": [ 85.359102000091241, 23.340315000248562 ] } },
{ "type": "Feature", "properties": { "objectid": 17687, "station_code": "CPCB_4753", "station_name": "HARMU RIVER NEAR HARMU BRIDGE HARMU RANCHI", "station_type": "Surface Water", "lat": 23.36433, "long": 85.31098, "basin_name": "Subernarekha Basin", "sub_basin_name": "Subernarekha", "created_date": "2020-09-04T05:30:00", "State_Name": "Jharkhand" }, "geometry": { "type": "Point", "coordinates": [ 85.310979999644516, 23.36432999998619 ] } },
{ "type": "Feature", "properties": { "objectid": 17689, "station_code": "CPCB_2400", "station_name": "RANCHI LAKE RANCHI", "station_type": "Surface Water", "lat": 23.366633, "long": 85.320178, "basin_name": "Subernarekha Basin", "sub_basin_name": "Subernarekha", "created_date": "2020-09-04T05:30:00", "State_Name": "Jharkhand" }, "geometry": { "type": "Point", "coordinates": [ 85.320177999697719, 23.366632999711392 ] } },
{ "type": "Feature", "properties": { "objectid": 17759, "station_code": "CPCB_4083", "station_name": "DAMODAR RIVER NEAR ROHINI PROJECT NK AREA PO-DAKRA RANCHI", "station_type": "Surface Water", "lat": 23.68358, "long": 85.008402, "basin_name": "Ganga Basin", "sub_basin_name": "Damodar", "created_date": "2020-09-04T05:30:00", "State_Name": "Jharkhand" }, "geometry": { "type": "Point", "coordinates": [ 85.008401999535934, 23.683579999590538 ] } },
{ "type": "Feature", "properties": { "objectid": 17930, "station_code": "CPCB_2401", "station_name": "AJAY RIVER AT MASANJORE DAM", "station_type": "Surface Water", "lat": 24.112461, "long": 87.310836, "basin_name": "Ganga Basin", "sub_basin_name": "Bhagirathi and others (Ganga Lower)", "created_date": "2020-09-04T05:30:00", "State_Name": "Jharkhand" }, "geometry": { "type": "Point", "coordinates": [ 87.310836000496607, 24.112461000068421 ] } },
{ "type": "Feature", "properties": { "objectid": 17972, "station_code": "CPCB_4490", "station_name": "KURWA DUMKA WATER INTAKE POINT", "station_type": "Surface Water", "lat": 24.281485, "long": 87.208617, "basin_name": "Ganga Basin", "sub_basin_name": "Bhagirathi and others (Ganga Lower)", "created_date": "2020-09-04T05:30:00", "State_Name": "Jharkhand" }, "geometry": { "type": "Point", "coordinates": [ 87.208617000039851, 24.281484999881059 ] } },
{ "type": "Feature", "properties": { "objectid": 17973, "station_code": "CPCB_4492", "station_name": "HAND PUMP NEAR GARBAGE DUMP RAKSHIBANDH DUMKA", "station_type": "Ground Water", "lat": 24.281493, "long": 87.208686, "basin_name": "Ganga Basin", "sub_basin_name": "Bhagirathi and others (Ganga Lower)", "created_date": "2020-09-04T05:30:00", "State_Name": "Jharkhand" }, "geometry": { "type": "Point", "coordinates": [ 87.208685999949196, 24.281492999672597 ] } },
{ "type": "Feature", "properties": { "objectid": 1903, "station_code": "125753076354301", "station_name": "Balasinda", "station_type": "Ground Water", "lat": 12.96472222, "long": 76.59527778, "basin_name": "Cauvery Basin", "sub_basin_name": "Cauvery Middle", "created_date": "2019-03-22T05:30:00", "State_Name": "Karnataka" }, "geometry": { "type": "Point", "coordinates": [ 76.595277780335778, 12.964722219756064 ] } },
{ "type": "Feature", "properties": { "objectid": 2014, "station_code": "130718075374201", "station_name": "Mudigere Hand Post", "station_type": "Ground Water", "lat": 13.12166667, "long": 75.62833333, "basin_name": "Cauvery Basin", "sub_basin_name": "Cauvery Upper", "created_date": "2019-03-22T05:30:00", "State_Name": "Karnataka" }, "geometry": { "type": "Point", "coordinates": [ 75.628333329684637, 13.12166666978638 ] } },
{ "type": "Feature", "properties": { "objectid": 2015, "station_code": "130720075365801", "station_name": "Bidaralli", "station_type": "Ground Water", "lat": 13.12222222, "long": 75.61611111000001, "basin_name": "Cauvery Basin", "sub_basin_name": "Cauvery Upper", "created_date": "2019-03-22T05:30:00", "State_Name": "Karnataka" }, "geometry": { "type": "Point", "coordinates": [ 75.616111110010934, 13.122222220029638 ] } },
{ "type": "Feature", "properties": { "objectid": 2020, "station_code": "130746075352401", "station_name": "Horatti", "station_type": "Ground Water", "lat": 13.12944444, "long": 75.59, "basin_name": "Cauvery Basin", "sub_basin_name": "Cauvery Upper", "created_date": "2019-03-22T05:30:00", "State_Name": "Karnataka" }, "geometry": { "type": "Point", "coordinates": [ 75.59000000029765, 13.129444439687237 ] } },
{ "type": "Feature", "properties": { "objectid": 2026, "station_code": "130940076400001", "station_name": "Turuvekere", "station_type": "Ground Water", "lat": 13.16111111, "long": 76.66666667, "basin_name": "Cauvery Basin", "sub_basin_name": "Cauvery Middle", "created_date": "2019-03-22T05:30:00", "State_Name": "Karnataka" }, "geometry": { "type": "Point", "coordinates": [ 76.666666670014479, 13.161111109732541 ] } },
{ "type": "Feature", "properties": { "objectid": 2030, "station_code": "130807075325701", "station_name": "Bankal", "station_type": "Ground Water", "lat": 13.13527778, "long": 75.54916667000001, "basin_name": "Cauvery Basin", "sub_basin_name": "Cauvery Upper", "created_date": "2019-03-22T05:30:00", "State_Name": "Karnataka" }, "geometry": { "type": "Point", "coordinates": [ 75.549166669704448, 13.135277779607586 ] } },
{ "type": "Feature", "properties": { "objectid": 2032, "station_code": "130824075335001", "station_name": "Chackmakki", "station_type": "Ground Water", "lat": 13.14, "long": 75.56388889, "basin_name": "Cauvery Basin", "sub_basin_name": "Cauvery Upper", "created_date": "2019-03-22T05:30:00", "State_Name": "Karnataka" }, "geometry": { "type": "Point", "coordinates": [ 75.56388888960241, 13.140000000260844 ] } },
{ "type": "Feature", "properties": { "objectid": 2037, "station_code": "130854075384601", "station_name": "Bilagula", "station_type": "Ground Water", "lat": 13.14833333, "long": 75.64611111000001, "basin_name": "Krishna Basin", "sub_basin_name": "Tungabhadra Upper", "created_date": "2019-03-22T05:30:00", "State_Name": "Karnataka" }, "geometry": { "type": "Point", "coordinates": [ 75.646111110117332, 13.148333330019165 ] } },
{ "type": "Feature", "properties": { "objectid": 2047, "station_code": "131120075471502", "station_name": "Singapurpet", "station_type": "Ground Water", "lat": 13.18888889, "long": 75.7875, "basin_name": "Cauvery Basin", "sub_basin_name": "Cauvery Upper", "created_date": "2019-03-22T05:30:00", "State_Name": "Karnataka" }, "geometry": { "type": "Point", "coordinates": [ 75.787499999761522, 13.188888889839305 ] } },
{ "type": "Feature", "properties": { "objectid": 2048, "station_code": "131131075463601", "station_name": "Agadalu", "station_type": "Ground Water", "lat": 13.19194444, "long": 75.77666667, "basin_name": "Cauvery Basin", "sub_basin_name": "Cauvery Upper", "created_date": "2019-03-22T05:30:00", "State_Name": "Karnataka" }, "geometry": { "type": "Point", "coordinates": [ 75.776666669876931, 13.191944439712593 ] } },
{ "type": "Feature", "properties": { "objectid": 2050, "station_code": "131200075410001", "station_name": "Handi", "station_type": "Ground Water", "lat": 13.2, "long": 75.68333333, "basin_name": "Cauvery Basin", "sub_basin_name": "Cauvery Upper", "created_date": "2019-03-22T05:30:00", "State_Name": "Karnataka" }, "geometry": { "type": "Point", "coordinates": [ 75.683333329701938, 13.200000000366707 ] } },
{ "type": "Feature", "properties": { "objectid": 2053, "station_code": "131230075480001", "station_name": "Gendehalli", "station_type": "Ground Water", "lat": 13.20833333, "long": 75.8, "basin_name": "Cauvery Basin", "sub_basin_name": "Cauvery Upper", "created_date": "2019-03-22T05:30:00", "State_Name": "Karnataka" }, "geometry": { "type": "Point", "coordinates": [ 75.799999999781136, 13.208333330244441 ] } },
{ "type": "Feature", "properties": { "objectid": 2063, "station_code": "131430076140001", "station_name": "Harnahalli", "station_type": "Ground Water", "lat": 13.24166667, "long": 76.23333333, "basin_name": "Krishna Basin", "sub_basin_name": "Tungabhadra Lower", "created_date": "2019-03-22T05:30:00", "State_Name": "Karnataka" }, "geometry": { "type": "Point", "coordinates": [ 76.233333329738826, 13.241666669563205 ] } },
{ "type": "Feature", "properties": { "objectid": 2064, "station_code": "131500076293001", "station_name": "Tiptur", "station_type": "Ground Water", "lat": 13.25, "long": 76.49166667, "basin_name": "Cauvery Basin", "sub_basin_name": "Cauvery Middle", "created_date": "2019-03-22T05:30:00", "State_Name": "Karnataka" }, "geometry": { "type": "Point", "coordinates": [ 76.491666669983474, 13.250000000045846 ] } },
{ "type": "Feature", "properties": { "objectid": 2067, "station_code": "131430075390001", "station_name": "Aldur", "station_type": "Ground Water", "lat": 13.24166667, "long": 75.65, "basin_name": "Cauvery Basin", "sub_basin_name": "Cauvery Upper", "created_date": "2019-03-22T05:30:00", "State_Name": "Karnataka" }, "geometry": { "type": "Point", "coordinates": [ 75.650000000375314, 13.241666670417795 ] } },
{ "type": "Feature", "properties": { "objectid": 2071, "station_code": "131609076335501", "station_name": "Karadikodi", "station_type": "Ground Water", "lat": 13.26916667, "long": 76.56527778, "basin_name": "Cauvery Basin", "sub_basin_name": "Cauvery Middle", "created_date": "2019-03-22T05:30:00", "State_Name": "Karnataka" }, "geometry": { "type": "Point", "coordinates": [ 76.565277780157857, 13.269166670357542 ] } },
{ "type": "Feature", "properties": { "objectid": 2075, "station_code": "131500075423001", "station_name": "Vasthare", "station_type": "Ground Water", "lat": 13.25, "long": 75.70833333, "basin_name": "Cauvery Basin", "sub_basin_name": "Cauvery Upper", "created_date": "2019-03-22T05:30:00", "State_Name": "Karnataka" }, "geometry": { "type": "Point", "coordinates": [ 75.708333329724809, 13.249999999839284 ] } },
{ "type": "Feature", "properties": { "objectid": 2081, "station_code": "131536075380101", "station_name": "Bannur_ckm", "station_type": "Ground Water", "lat": 13.26, "long": 75.63361111, "basin_name": "Krishna Basin", "sub_basin_name": "Tungabhadra Upper", "created_date": "2019-03-22T05:30:00", "State_Name": "Karnataka" }, "geometry": { "type": "Point", "coordinates": [ 75.633611109904237, 13.259999999637277 ] } },
{ "type": "Feature", "properties": { "objectid": 2083, "station_code": "131549075410501", "station_name": "Kooduvalli", "station_type": "Ground Water", "lat": 13.26361111, "long": 75.68472222, "basin_name": "Cauvery Basin", "sub_basin_name": "Cauvery Upper", "created_date": "2019-03-22T05:30:00", "State_Name": "Karnataka" }, "geometry": { "type": "Point", "coordinates": [ 75.684722220234363, 13.263611109827471 ] } },
{ "type": "Feature", "properties": { "objectid": 2086, "station_code": "131700076170001", "station_name": "Arsikere", "station_type": "Ground Water", "lat": 13.28333333, "long": 76.28333333, "basin_name": "Krishna Basin", "sub_basin_name": "Tungabhadra Lower", "created_date": "2019-03-22T05:30:00", "State_Name": "Karnataka" }, "geometry": { "type": "Point", "coordinates": [ 76.283333330120954, 13.283333330266643 ] } },
{ "type": "Feature", "properties": { "objectid": 2089, "station_code": "131623075432401", "station_name": "Aladagudde", "station_type": "Ground Water", "lat": 13.27305556, "long": 75.72333333, "basin_name": "Cauvery Basin", "sub_basin_name": "Cauvery Upper", "created_date": "2019-03-22T05:30:00", "State_Name": "Karnataka" }, "geometry": { "type": "Point", "coordinates": [ 75.723333330023564, 13.273055560221115 ] } },
{ "type": "Feature", "properties": { "objectid": 2093, "station_code": "131622075285301", "station_name": "Magundi", "station_type": "Ground Water", "lat": 13.27277778, "long": 75.48138889000001, "basin_name": "Krishna Basin", "sub_basin_name": "Tungabhadra Upper", "created_date": "2019-03-22T05:30:00", "State_Name": "Karnataka" }, "geometry": { "type": "Point", "coordinates": [ 75.48138889029606, 13.27277778014686 ] } },
{ "type": "Feature", "properties": { "objectid": 2095, "station_code": "131635075281801", "station_name": "Mahalgodu", "station_type": "Ground Water", "lat": 13.27638889, "long": 75.47166667, "basin_name": "Krishna Basin", "sub_basin_name": "Tungabhadra Upper", "created_date": "2019-03-22T05:30:00", "State_Name": "Karnataka" }, "geometry": { "type": "Point", "coordinates": [ 75.471666669734049, 13.276388890388413 ] } },
{ "type": "Feature", "properties": { "objectid": 2096, "station_code": "131707075445001", "station_name": "Mugthihalli", "station_type": "Ground Water", "lat": 13.28527778, "long": 75.74722222, "basin_name": "Cauvery Basin", "sub_basin_name": "Cauvery Upper", "created_date": "2019-03-22T05:30:00", "State_Name": "Karnataka" }, "geometry": { "type": "Point", "coordinates": [ 75.747222220129913, 13.285277779597452 ] } },
{ "type": "Feature", "properties": { "objectid": 2097, "station_code": "131728075483101", "station_name": "Karthikere", "station_type": "Ground Water", "lat": 13.29111111, "long": 75.80861111, "basin_name": "Cauvery Basin", "sub_basin_name": "Cauvery Upper", "created_date": "2019-03-22T05:30:00", "State_Name": "Karnataka" }, "geometry": { "type": "Point", "coordinates": [ 75.808611110026334, 13.291111110142891 ] } },
{ "type": "Feature", "properties": { "objectid": 2102, "station_code": "131800075460002", "station_name": "Rampura", "station_type": "Ground Water", "lat": 13.3, "long": 75.76666667000001, "basin_name": "Cauvery Basin", "sub_basin_name": "Cauvery Upper", "created_date": "2019-03-22T05:30:00", "State_Name": "Karnataka" }, "geometry": { "type": "Point", "coordinates": [ 75.766666669864421, 13.299999999553597 ] } },
{ "type": "Feature", "properties": { "objectid": 2105, "station_code": "131800075380002", "station_name": "Halemudigere", "station_type": "Ground Water", "lat": 13.3, "long": 75.63333333, "basin_name": "Krishna Basin", "sub_basin_name": "Tungabhadra Upper", "created_date": "2019-03-22T05:30:00", "State_Name": "Karnataka" }, "geometry": { "type": "Point", "coordinates": [ 75.633333330258722, 13.299999999739683 ] } },
{ "type": "Feature", "properties": { "objectid": 2108, "station_code": "131830075350002", "station_name": "Kanati", "station_type": "Ground Water", "lat": 13.30833333, "long": 75.58333333, "basin_name": "Krishna Basin", "sub_basin_name": "Tungabhadra Upper", "created_date": "2019-03-22T05:30:00", "State_Name": "Karnataka" }, "geometry": { "type": "Point", "coordinates": [ 75.583333330011044, 13.308333330452379 ] } },
{ "type": "Feature", "properties": { "objectid": 2112, "station_code": "131929075433601", "station_name": "Hukkunda", "station_type": "Ground Water", "lat": 13.32472222, "long": 75.72666667, "basin_name": "Cauvery Basin", "sub_basin_name": "Cauvery Upper", "created_date": "2019-03-22T05:30:00", "State_Name": "Karnataka" }, "geometry": { "type": "Point", "coordinates": [ 75.726666670132971, 13.32472221960597 ] } },
{ "type": "Feature", "properties": { "objectid": 2114, "station_code": "131936075433501", "station_name": "Thali Halla", "station_type": "Ground Water", "lat": 13.32666667, "long": 75.72638889, "basin_name": "Cauvery Basin", "sub_basin_name": "Cauvery Upper", "created_date": "2019-03-22T05:30:00", "State_Name": "Karnataka" }, "geometry": { "type": "Point", "coordinates": [ 75.726388890015841, 13.326666669825771 ] } },
{ "type": "Feature", "properties": { "objectid": 2115, "station_code": "132008076014501", "station_name": "Uppalli", "station_type": "Ground Water", "lat": 13.33555556, "long": 76.02916667, "basin_name": "Krishna Basin", "sub_basin_name": "Tungabhadra Lower", "created_date": "2019-03-22T05:30:00", "State_Name": "Karnataka" }, "geometry": { "type": "Point", "coordinates": [ 76.029166669568752, 13.335555560040172 ] } },
{ "type": "Feature", "properties": { "objectid": 2116, "station_code": "131951075332501", "station_name": "Hunsehalli", "station_type": "Ground Water", "lat": 13.33083333, "long": 75.55694444, "basin_name": "Krishna Basin", "sub_basin_name": "Tungabhadra Upper", "created_date": "2019-03-22T05:30:00", "State_Name": "Karnataka" }, "geometry": { "type": "Point", "coordinates": [ 75.556944439589017, 13.330833329906229 ] } },
{ "type": "Feature", "properties": { "objectid": 2118, "station_code": "131952075293001", "station_name": "Bannur_NRP", "station_type": "Ground Water", "lat": 13.33111111, "long": 75.49166667, "basin_name": "Krishna Basin", "sub_basin_name": "Tungabhadra Upper", "created_date": "2019-03-22T05:30:00", "State_Name": "Karnataka" }, "geometry": { "type": "Point", "coordinates": [ 75.491666670220255, 13.331111110438091 ] } },
{ "type": "Feature", "properties": { "objectid": 2120, "station_code": "132005075300002", "station_name": "Balehonnur", "station_type": "Ground Water", "lat": 13.33472222, "long": 75.5, "basin_name": "Krishna Basin", "sub_basin_name": "Tungabhadra Upper", "created_date": "2019-03-22T05:30:00", "State_Name": "Karnataka" }, "geometry": { "type": "Point", "coordinates": [ 75.499999999697181, 13.334722219583361 ] } },
{ "type": "Feature", "properties": { "objectid": 2123, "station_code": "132215076284502", "station_name": "Halkurke-A", "station_type": "Ground Water", "lat": 13.37083333, "long": 76.47916667, "basin_name": "Krishna Basin", "sub_basin_name": "Tungabhadra Lower", "created_date": "2019-03-22T05:30:00", "State_Name": "Karnataka" }, "geometry": { "type": "Point", "coordinates": [ 76.479166669933022, 13.370833330214605 ] } },
{ "type": "Feature", "properties": { "objectid": 2127, "station_code": "132037075264201", "station_name": "Seegodu", "station_type": "Ground Water", "lat": 13.34361111, "long": 75.445, "basin_name": "Krishna Basin", "sub_basin_name": "Tungabhadra Upper", "created_date": "2019-03-22T05:30:00", "State_Name": "Karnataka" }, "geometry": { "type": "Point", "coordinates": [ 75.445000000260364, 13.343611110343817 ] } },
{ "type": "Feature", "properties": { "objectid": 2133, "station_code": "132128075320501", "station_name": "Gori Gundi", "station_type": "Ground Water", "lat": 13.35777778, "long": 75.53472222000001, "basin_name": "Krishna Basin", "sub_basin_name": "Tungabhadra Upper", "created_date": "2019-03-22T05:30:00", "State_Name": "Karnataka" }, "geometry": { "type": "Point", "coordinates": [ 75.534722220250472, 13.357777779627416 ] } },
{ "type": "Feature", "properties": { "objectid": 2136, "station_code": "132320076252501", "station_name": "Balavaneralu", "station_type": "Ground Water", "lat": 13.38888889, "long": 76.42361111, "basin_name": "Krishna Basin", "sub_basin_name": "Tungabhadra Lower", "created_date": "2019-03-22T05:30:00", "State_Name": "Karnataka" }, "geometry": { "type": "Point", "coordinates": [ 76.423611110139916, 13.388888889736405 ] } },
{ "type": "Feature", "properties": { "objectid": 2137, "station_code": "132330076315301", "station_name": "Madihalli", "station_type": "Ground Water", "lat": 13.39166667, "long": 76.53138889, "basin_name": "Krishna Basin", "sub_basin_name": "Tungabhadra Lower", "created_date": "2019-03-22T05:30:00", "State_Name": "Karnataka" }, "geometry": { "type": "Point", "coordinates": [ 76.531388889561313, 13.391666669737321 ] } },
{ "type": "Feature", "properties": { "objectid": 2138, "station_code": "132313076043601", "station_name": "Machcheri", "station_type": "Ground Water", "lat": 13.38694444, "long": 76.07666667, "basin_name": "Krishna Basin", "sub_basin_name": "Tungabhadra Lower", "created_date": "2019-03-22T05:30:00", "State_Name": "Karnataka" }, "geometry": { "type": "Point", "coordinates": [ 76.076666670200666, 13.386944440108122 ] } },
{ "type": "Feature", "properties": { "objectid": 2142, "station_code": "132400076263001", "station_name": "Suragondanahalli", "station_type": "Ground Water", "lat": 13.4, "long": 76.44166667, "basin_name": "Krishna Basin", "sub_basin_name": "Tungabhadra Lower", "created_date": "2019-03-22T05:30:00", "State_Name": "Karnataka" }, "geometry": { "type": "Point", "coordinates": [ 76.441666670227804, 13.400000000301388 ] } },
{ "type": "Feature", "properties": { "objectid": 2147, "station_code": "132236075235901", "station_name": "Herur", "station_type": "Ground Water", "lat": 13.37666667, "long": 75.39972222, "basin_name": "Krishna Basin", "sub_basin_name": "Tungabhadra Upper", "created_date": "2019-03-22T05:30:00", "State_Name": "Karnataka" }, "geometry": { "type": "Point", "coordinates": [ 75.399722219956203, 13.376666669814226 ] } },
{ "type": "Feature", "properties": { "objectid": 2148, "station_code": "132420076244501", "station_name": "Rudrapura", "station_type": "Ground Water", "lat": 13.40555556, "long": 76.4125, "basin_name": "Krishna Basin", "sub_basin_name": "Tungabhadra Lower", "created_date": "2019-03-22T05:30:00", "State_Name": "Karnataka" }, "geometry": { "type": "Point", "coordinates": [ 76.412500000470075, 13.40555555962829 ] } },
{ "type": "Feature", "properties": { "objectid": 2152, "station_code": "132459076210201", "station_name": "J.C.Pura", "station_type": "Ground Water", "lat": 13.41638889, "long": 76.35055556, "basin_name": "Krishna Basin", "sub_basin_name": "Tungabhadra Lower", "created_date": "2019-03-22T05:30:00", "State_Name": "Karnataka" }, "geometry": { "type": "Point", "coordinates": [ 76.350555559676266, 13.416388889979833 ] } },
{ "type": "Feature", "properties": { "objectid": 2154, "station_code": "132345075223001", "station_name": "Jayapura", "station_type": "Ground Water", "lat": 13.39583333, "long": 75.375, "basin_name": "Krishna Basin", "sub_basin_name": "Tungabhadra Upper", "created_date": "2019-03-22T05:30:00", "State_Name": "Karnataka" }, "geometry": { "type": "Point", "coordinates": [ 75.375000000044736, 13.395833329793675 ] } },
{ "type": "Feature", "properties": { "objectid": 2156, "station_code": "132600076290001", "station_name": "Ghansinayan", "station_type": "Ground Water", "lat": 13.43333333, "long": 76.48333333, "basin_name": "Krishna Basin", "sub_basin_name": "Tungabhadra Lower", "created_date": "2019-03-22T05:30:00", "State_Name": "Karnataka" }, "geometry": { "type": "Point", "coordinates": [ 76.483333329793822, 13.433333329789598 ] } },
{ "type": "Feature", "properties": { "objectid": 2161, "station_code": "132550075550001", "station_name": "Sakrepatna", "station_type": "Ground Water", "lat": 13.43055556, "long": 75.91666667, "basin_name": "Krishna Basin", "sub_basin_name": "Tungabhadra Lower", "created_date": "2019-03-22T05:30:00", "State_Name": "Karnataka" }, "geometry": { "type": "Point", "coordinates": [ 75.91666666984537, 13.430555559725716 ] } },
{ "type": "Feature", "properties": { "objectid": 2162, "station_code": "132600076000001", "station_name": "Agrahara", "station_type": "Ground Water", "lat": 13.43333333, "long": 76.0, "basin_name": "Krishna Basin", "sub_basin_name": "Tungabhadra Lower", "created_date": "2019-03-22T05:30:00", "State_Name": "Karnataka" }, "geometry": { "type": "Point", "coordinates": [ 76.00000000042526, 13.433333330013793 ] } },
{ "type": "Feature", "properties": { "objectid": 2174, "station_code": "132900076170001", "station_name": "Kankatte", "station_type": "Ground Water", "lat": 13.48333333, "long": 76.28333333, "basin_name": "Krishna Basin", "sub_basin_name": "Tungabhadra Lower", "created_date": "2019-03-22T05:30:00", "State_Name": "Karnataka" }, "geometry": { "type": "Point", "coordinates": [ 76.283333329856404, 13.483333330061322 ] } },
{ "type": "Feature", "properties": { "objectid": 2178, "station_code": "132805075274001", "station_name": "Alehalli", "station_type": "Ground Water", "lat": 13.46805556, "long": 75.46111111, "basin_name": "Krishna Basin", "sub_basin_name": "Tungabhadra Upper", "created_date": "2019-03-22T05:30:00", "State_Name": "Karnataka" }, "geometry": { "type": "Point", "coordinates": [ 75.461111110365664, 13.468055559774687 ] } },
{ "type": "Feature", "properties": { "objectid": 2180, "station_code": "132932076163501", "station_name": "Ahmedpur", "station_type": "Ground Water", "lat": 13.49222222, "long": 76.27638889000001, "basin_name": "Krishna Basin", "sub_basin_name": "Tungabhadra Lower", "created_date": "2019-03-22T05:30:00", "State_Name": "Karnataka" }, "geometry": { "type": "Point", "coordinates": [ 76.276388890163233, 13.492222220259276 ] } },
{ "type": "Feature", "properties": { "objectid": 2184, "station_code": "133030076460001", "station_name": "Hagalavadi", "station_type": "Ground Water", "lat": 13.50833333, "long": 76.76666667000001, "basin_name": "Krishna Basin", "sub_basin_name": "Tungabhadra Lower", "created_date": "2019-03-22T05:30:00", "State_Name": "Karnataka" }, "geometry": { "type": "Point", "coordinates": [ 76.766666669956834, 13.508333329809213 ] } },
{ "type": "Feature", "properties": { "objectid": 2190, "station_code": "132900075200002", "station_name": "Narve", "station_type": "Ground Water", "lat": 13.48333333, "long": 75.33333333, "basin_name": "Krishna Basin", "sub_basin_name": "Tungabhadra Upper", "created_date": "2019-03-22T05:30:00", "State_Name": "Karnataka" }, "geometry": { "type": "Point", "coordinates": [ 75.333333330379446, 13.483333329577921 ] } },
{ "type": "Feature", "properties": { "objectid": 2204, "station_code": "133105075161701", "station_name": "Kalanaikana Katte", "station_type": "Ground Water", "lat": 13.51805556, "long": 75.27138889, "basin_name": "Krishna Basin", "sub_basin_name": "Tungabhadra Upper", "created_date": "2019-03-22T05:30:00", "State_Name": "Karnataka" }, "geometry": { "type": "Point", "coordinates": [ 75.271388890067485, 13.518055559548543 ] } },
{ "type": "Feature", "properties": { "objectid": 2206, "station_code": "011-cdbmg", "station_name": "HARIHARAPURA", "station_type": "Surface Water", "lat": 13.5225, "long": 75.30361111000001, "basin_name": "Krishna Basin", "sub_basin_name": "Tungabhadra Upper", "created_date": "2021-12-21T05:30:00", "State_Name": "Karnataka" }, "geometry": { "type": "Point", "coordinates": [ 75.303611111145003, 13.52250000027856 ] } },
{ "type": "Feature", "properties": { "objectid": 2209, "station_code": "133130075180001", "station_name": "Hariharapura", "station_type": "Ground Water", "lat": 13.525, "long": 75.3, "basin_name": "Krishna Basin", "sub_basin_name": "Tungabhadra Upper", "created_date": "2019-03-22T05:30:00", "State_Name": "Karnataka" }, "geometry": { "type": "Point", "coordinates": [ 75.300000000262429, 13.524999999934359 ] } },
{ "type": "Feature", "properties": { "objectid": 2210, "station_code": "133257076041401", "station_name": "Mallidevihalli", "station_type": "Ground Water", "lat": 13.54916667, "long": 76.07055556, "basin_name": "Krishna Basin", "sub_basin_name": "Tungabhadra Lower", "created_date": "2019-03-22T05:30:00", "State_Name": "Karnataka" }, "geometry": { "type": "Point", "coordinates": [ 76.07055555960099, 13.549166669713541 ] } },
{ "type": "Feature", "properties": { "objectid": 2217, "station_code": "133200075210001", "station_name": "Koppa", "station_type": "Ground Water", "lat": 13.53333333, "long": 75.35, "basin_name": "Krishna Basin", "sub_basin_name": "Tungabhadra Upper", "created_date": "2019-03-22T05:30:00", "State_Name": "Karnataka" }, "geometry": { "type": "Point", "coordinates": [ 75.350000000082161, 13.533333330423806 ] } },
{ "type": "Feature", "properties": { "objectid": 2221, "station_code": "133300075253002", "station_name": "Kudregundi", "station_type": "Ground Water", "lat": 13.55, "long": 75.425, "basin_name": "Krishna Basin", "sub_basin_name": "Tungabhadra Upper", "created_date": "2019-03-22T05:30:00", "State_Name": "Karnataka" }, "geometry": { "type": "Point", "coordinates": [ 75.425000000249796, 13.549999999673421 ] } },
{ "type": "Feature", "properties": { "objectid": 2233, "station_code": "133600075300001", "station_name": "Narasimharajapura1", "station_type": "Ground Water", "lat": 13.6, "long": 75.5, "basin_name": "Krishna Basin", "sub_basin_name": "Tungabhadra Upper", "created_date": "2019-03-22T05:30:00", "State_Name": "Karnataka" }, "geometry": { "type": "Point", "coordinates": [ 75.500000000371486, 13.60000000026964 ] } },
{ "type": "Feature", "properties": { "objectid": 2236, "station_code": "133544075150802", "station_name": "Hulkod", "station_type": "Ground Water", "lat": 13.59555556, "long": 75.25222222, "basin_name": "Krishna Basin", "sub_basin_name": "Tungabhadra Upper", "created_date": "2019-03-22T05:30:00", "State_Name": "Karnataka" }, "geometry": { "type": "Point", "coordinates": [ 75.252222219824617, 13.595555560129851 ] } },
{ "type": "Feature", "properties": { "objectid": 2237, "station_code": "133544075150801", "station_name": "Tirthamatthur", "station_type": "Ground Water", "lat": 13.59555556, "long": 75.25222222, "basin_name": "Krishna Basin", "sub_basin_name": "Tungabhadra Upper", "created_date": "2019-03-22T05:30:00", "State_Name": "Karnataka" }, "geometry": { "type": "Point", "coordinates": [ 75.252222219824617, 13.595555560129851 ] } },
{ "type": "Feature", "properties": { "objectid": 2251, "station_code": "133749075161801", "station_name": "Devangi", "station_type": "Ground Water", "lat": 13.63027778, "long": 75.27166667, "basin_name": "Krishna Basin", "sub_basin_name": "Tungabhadra Upper", "created_date": "2019-03-22T05:30:00", "State_Name": "Karnataka" }, "geometry": { "type": "Point", "coordinates": [ 75.271666670101538, 13.630277780113783 ] } },
{ "type": "Feature", "properties": { "objectid": 2260, "station_code": "134021076022801", "station_name": "Hirenallur", "station_type": "Ground Water", "lat": 13.6725, "long": 76.04111111, "basin_name": "Krishna Basin", "sub_basin_name": "Tungabhadra Lower", "created_date": "2019-03-22T05:30:00", "State_Name": "Karnataka" }, "geometry": { "type": "Point", "coordinates": [ 76.041111110357605, 13.672500000191029 ] } },
{ "type": "Feature", "properties": { "objectid": 2261, "station_code": "134000075450001", "station_name": "Tarikere", "station_type": "Ground Water", "lat": 13.66666667, "long": 75.75, "basin_name": "Krishna Basin", "sub_basin_name": "Tungabhadra Upper", "created_date": "2019-03-22T05:30:00", "State_Name": "Karnataka" }, "geometry": { "type": "Point", "coordinates": [ 75.749999999546276, 13.66666666999263 ] } },
{ "type": "Feature", "properties": { "objectid": 2265, "station_code": "134000075293002", "station_name": "Shettikoppa", "station_type": "Ground Water", "lat": 13.66666667, "long": 75.49166667, "basin_name": "Krishna Basin", "sub_basin_name": "Tungabhadra Upper", "created_date": "2019-03-22T05:30:00", "State_Name": "Karnataka" }, "geometry": { "type": "Point", "coordinates": [ 75.491666670337224, 13.666666670359781 ] } },
{ "type": "Feature", "properties": { "objectid": 2268, "station_code": "133957075153801", "station_name": "Taluve", "station_type": "Ground Water", "lat": 13.66583333, "long": 75.26055556, "basin_name": "Krishna Basin", "sub_basin_name": "Tungabhadra Upper", "created_date": "2019-03-22T05:30:00", "State_Name": "Karnataka" }, "geometry": { "type": "Point", "coordinates": [ 75.260555559635989, 13.66583333036778 ] } },
{ "type": "Feature", "properties": { "objectid": 2269, "station_code": "134100075313001", "station_name": "Narasimharajapura", "station_type": "Ground Water", "lat": 13.68333333, "long": 75.525, "basin_name": "Krishna Basin", "sub_basin_name": "Tungabhadra Upper", "created_date": "2019-03-22T05:30:00", "State_Name": "Karnataka" }, "geometry": { "type": "Point", "coordinates": [ 75.525000000012753, 13.683333330286629 ] } },
{ "type": "Feature", "properties": { "objectid": 2271, "station_code": "134031075123701", "station_name": "Nandikatte", "station_type": "Ground Water", "lat": 13.67527778, "long": 75.21027778, "basin_name": "Krishna Basin", "sub_basin_name": "Tungabhadra Upper", "created_date": "2019-03-22T05:30:00", "State_Name": "Karnataka" }, "geometry": { "type": "Point", "coordinates": [ 75.210277779675678, 13.675277780202691 ] } },
{ "type": "Feature", "properties": { "objectid": 2273, "station_code": "134200076001001", "station_name": "Channapura", "station_type": "Ground Water", "lat": 13.7, "long": 76.00277778, "basin_name": "Krishna Basin", "sub_basin_name": "Tungabhadra Lower", "created_date": "2019-03-22T05:30:00", "State_Name": "Karnataka" }, "geometry": { "type": "Point", "coordinates": [ 76.002777780263301, 13.700000000368687 ] } },
{ "type": "Feature", "properties": { "objectid": 2279, "station_code": "134140075392001", "station_name": "Lakkavalli", "station_type": "Ground Water", "lat": 13.69444444, "long": 75.65555556, "basin_name": "Krishna Basin", "sub_basin_name": "Tungabhadra Upper", "created_date": "2019-03-22T05:30:00", "State_Name": "Karnataka" }, "geometry": { "type": "Point", "coordinates": [ 75.655555559997751, 13.69444444020923 ] } },
{ "type": "Feature", "properties": { "objectid": 2281, "station_code": "134245075580001", "station_name": "Sokke", "station_type": "Ground Water", "lat": 13.7125, "long": 75.96666667, "basin_name": "Krishna Basin", "sub_basin_name": "Tungabhadra Lower", "created_date": "2019-03-22T05:30:00", "State_Name": "Karnataka" }, "geometry": { "type": "Point", "coordinates": [ 75.966666670378061, 13.712499999718675 ] } },
{ "type": "Feature", "properties": { "objectid": 2282, "station_code": "134224075415001", "station_name": "Rangenahalli", "station_type": "Ground Water", "lat": 13.70666667, "long": 75.69722222, "basin_name": "Krishna Basin", "sub_basin_name": "Tungabhadra Upper", "created_date": "2019-03-22T05:30:00", "State_Name": "Karnataka" }, "geometry": { "type": "Point", "coordinates": [ 75.697222220189374, 13.706666670184866 ] } },
{ "type": "Feature", "properties": { "objectid": 2283, "station_code": "049-CDBNG", "station_name": "LAKKAVALLI", "station_type": "Surface Water", "lat": 13.70611111, "long": 75.64416667, "basin_name": "Krishna Basin", "sub_basin_name": "Tungabhadra Upper", "created_date": "2021-12-21T05:30:00", "State_Name": "Karnataka" }, "geometry": { "type": "Point", "coordinates": [ 75.644166666364669, 13.7061111115079 ] } },
{ "type": "Feature", "properties": { "objectid": 2284, "station_code": "134150075155501", "station_name": "Tudki", "station_type": "Ground Water", "lat": 13.69722222, "long": 75.26527778000001, "basin_name": "Krishna Basin", "sub_basin_name": "Tungabhadra Upper", "created_date": "2019-03-22T05:30:00", "State_Name": "Karnataka" }, "geometry": { "type": "Point", "coordinates": [ 75.265277780240623, 13.697222219759823 ] } },
{ "type": "Feature", "properties": { "objectid": 2285, "station_code": "134330076070001", "station_name": "Antharagatta", "station_type": "Ground Water", "lat": 13.725, "long": 76.11666667, "basin_name": "Krishna Basin", "sub_basin_name": "Tungabhadra Lower", "created_date": "2019-03-22T05:30:00", "State_Name": "Karnataka" }, "geometry": { "type": "Point", "coordinates": [ 76.116666669907062, 13.72499999981593 ] } },
{ "type": "Feature", "properties": { "objectid": 2286, "station_code": "134300075424001", "station_name": "Bhavikere", "station_type": "Ground Water", "lat": 13.71666667, "long": 75.71111111, "basin_name": "Krishna Basin", "sub_basin_name": "Tungabhadra Upper", "created_date": "2019-03-22T05:30:00", "State_Name": "Karnataka" }, "geometry": { "type": "Point", "coordinates": [ 75.711111110135263, 13.716666670449964 ] } },
{ "type": "Feature", "properties": { "objectid": 2287, "station_code": "134500076540001", "station_name": "Sira", "station_type": "Ground Water", "lat": 13.75, "long": 76.9, "basin_name": "Krishna Basin", "sub_basin_name": "Tungabhadra Lower", "created_date": "2019-03-22T05:30:00", "State_Name": "Karnataka" }, "geometry": { "type": "Point", "coordinates": [ 76.899999999622722, 13.749999999592518 ] } },
{ "type": "Feature", "properties": { "objectid": 2288, "station_code": "134253075275301", "station_name": "Shankarapura", "station_type": "Ground Water", "lat": 13.71472222, "long": 75.46472222, "basin_name": "Krishna Basin", "sub_basin_name": "Tungabhadra Upper", "created_date": "2019-03-22T05:30:00", "State_Name": "Karnataka" }, "geometry": { "type": "Point", "coordinates": [ 75.464722220079608, 13.714722220418899 ] } },
{ "type": "Feature", "properties": { "objectid": 2289, "station_code": "134252075235101", "station_name": "Bagavalli", "station_type": "Ground Water", "lat": 13.71444444, "long": 75.3975, "basin_name": "Krishna Basin", "sub_basin_name": "Tungabhadra Upper", "created_date": "2019-03-22T05:30:00", "State_Name": "Karnataka" }, "geometry": { "type": "Point", "coordinates": [ 75.397500000072228, 13.71444443992872 ] } },
{ "type": "Feature", "properties": { "objectid": 2292, "station_code": "134255075222001", "station_name": "Gabadi", "station_type": "Ground Water", "lat": 13.71527778, "long": 75.37222222, "basin_name": "Krishna Basin", "sub_basin_name": "Tungabhadra Upper", "created_date": "2019-03-22T05:30:00", "State_Name": "Karnataka" }, "geometry": { "type": "Point", "coordinates": [ 75.372222219848481, 13.715277780045007 ] } },
{ "type": "Feature", "properties": { "objectid": 2293, "station_code": "134314075262201", "station_name": "Nidagalale", "station_type": "Ground Water", "lat": 13.72055556, "long": 75.43944444, "basin_name": "Krishna Basin", "sub_basin_name": "Tungabhadra Upper", "created_date": "2019-03-22T05:30:00", "State_Name": "Karnataka" }, "geometry": { "type": "Point", "coordinates": [ 75.439444440433348, 13.72055556004978 ] } },
{ "type": "Feature", "properties": { "objectid": 2294, "station_code": "134321075280401", "station_name": "Muthinakoppa", "station_type": "Ground Water", "lat": 13.7225, "long": 75.46777778000001, "basin_name": "Krishna Basin", "sub_basin_name": "Tungabhadra Upper", "created_date": "2019-03-22T05:30:00", "State_Name": "Karnataka" }, "geometry": { "type": "Point", "coordinates": [ 75.467777780371833, 13.722500000290793 ] } },
{ "type": "Feature", "properties": { "objectid": 2296, "station_code": "134300075140001", "station_name": "Ganapathikatte", "station_type": "Ground Water", "lat": 13.71666667, "long": 75.23333333, "basin_name": "Krishna Basin", "sub_basin_name": "Tungabhadra Upper", "created_date": "2019-03-22T05:30:00", "State_Name": "Karnataka" }, "geometry": { "type": "Point", "coordinates": [ 75.23333332961559, 13.716666669718702 ] } },
{ "type": "Feature", "properties": { "objectid": 2297, "station_code": "134320075172401", "station_name": "Kudumallige", "station_type": "Ground Water", "lat": 13.72222222, "long": 75.29, "basin_name": "Krishna Basin", "sub_basin_name": "Tungabhadra Upper", "created_date": "2019-03-22T05:30:00", "State_Name": "Karnataka" }, "geometry": { "type": "Point", "coordinates": [ 75.290000000135223, 13.722222219922916 ] } },
{ "type": "Feature", "properties": { "objectid": 2298, "station_code": "008-CDBNG", "station_name": "KELLODU", "station_type": "Surface Water", "lat": 13.75416667, "long": 76.31972222, "basin_name": "Krishna Basin", "sub_basin_name": "Tungabhadra Lower", "created_date": "2020-08-21T05:30:00", "State_Name": "Karnataka" }, "geometry": { "type": "Point", "coordinates": [ 76.319722222591807, 13.754166666241506 ] } },
{ "type": "Feature", "properties": { "objectid": 2299, "station_code": "134450076003002", "station_name": "Ajjampur (A)", "station_type": "Ground Water", "lat": 13.74722222, "long": 76.00833333, "basin_name": "Krishna Basin", "sub_basin_name": "Tungabhadra Lower", "created_date": "2019-03-22T05:30:00", "State_Name": "Karnataka" }, "geometry": { "type": "Point", "coordinates": [ 76.008333329830492, 13.747222219865428 ] } },
{ "type": "Feature", "properties": { "objectid": 2301, "station_code": "134400075260001", "station_name": "Mandagadde", "station_type": "Ground Water", "lat": 13.73333333, "long": 75.43333333, "basin_name": "Krishna Basin", "sub_basin_name": "Tungabhadra Upper", "created_date": "2019-03-22T05:30:00", "State_Name": "Karnataka" }, "geometry": { "type": "Point", "coordinates": [ 75.433333329678746, 13.73333333005826 ] } },
{ "type": "Feature", "properties": { "objectid": 2302, "station_code": "134350075203001", "station_name": "Malur2", "station_type": "Ground Water", "lat": 13.73055556, "long": 75.34166667, "basin_name": "Krishna Basin", "sub_basin_name": "Tungabhadra Upper", "created_date": "2019-03-22T05:30:00", "State_Name": "Karnataka" }, "geometry": { "type": "Point", "coordinates": [ 75.341666669947926, 13.730555559897089 ] } },
{ "type": "Feature", "properties": { "objectid": 2305, "station_code": "134421075193201", "station_name": "Konandur Dw", "station_type": "Ground Water", "lat": 13.73916667, "long": 75.32555556, "basin_name": "Krishna Basin", "sub_basin_name": "Tungabhadra Upper", "created_date": "2019-03-22T05:30:00", "State_Name": "Karnataka" }, "geometry": { "type": "Point", "coordinates": [ 75.325555559771985, 13.739166669585577 ] } },
{ "type": "Feature", "properties": { "objectid": 2306, "station_code": "134422075122901", "station_name": "Araga", "station_type": "Ground Water", "lat": 13.73944444, "long": 75.20805556000001, "basin_name": "Krishna Basin", "sub_basin_name": "Tungabhadra Upper", "created_date": "2019-03-22T05:30:00", "State_Name": "Karnataka" }, "geometry": { "type": "Point", "coordinates": [ 75.20805556037935, 13.739444439702041 ] } },
{ "type": "Feature", "properties": { "objectid": 2310, "station_code": "134600075343002", "station_name": "Umblibailu", "station_type": "Ground Water", "lat": 13.76666667, "long": 75.575, "basin_name": "Krishna Basin", "sub_basin_name": "Tungabhadra Upper", "created_date": "2019-03-22T05:30:00", "State_Name": "Karnataka" }, "geometry": { "type": "Point", "coordinates": [ 75.574999999610426, 13.766666669935393 ] } },
{ "type": "Feature", "properties": { "objectid": 2311, "station_code": "134634075371401", "station_name": "Hunsekatte Junction", "station_type": "Ground Water", "lat": 13.77611111, "long": 75.62055556, "basin_name": "Krishna Basin", "sub_basin_name": "Tungabhadra Upper", "created_date": "2019-03-22T05:30:00", "State_Name": "Karnataka" }, "geometry": { "type": "Point", "coordinates": [ 75.620555560109509, 13.776111110087038 ] } },
{ "type": "Feature", "properties": { "objectid": 2314, "station_code": "134615075145001", "station_name": "Guddekoppa", "station_type": "Ground Water", "lat": 13.77083333, "long": 75.24722222, "basin_name": "Krishna Basin", "sub_basin_name": "Tungabhadra Upper", "created_date": "2019-03-22T05:30:00", "State_Name": "Karnataka" }, "geometry": { "type": "Point", "coordinates": [ 75.247222220225453, 13.770833329679792 ] } },
{ "type": "Feature", "properties": { "objectid": 2315, "station_code": "134725075440501", "station_name": "Kempegowdanagara", "station_type": "Ground Water", "lat": 13.79027778, "long": 75.73472222, "basin_name": "Krishna Basin", "sub_basin_name": "Tungabhadra Upper", "created_date": "2019-03-22T05:30:00", "State_Name": "Karnataka" }, "geometry": { "type": "Point", "coordinates": [ 75.734722220182604, 13.790277779681137 ] } },
{ "type": "Feature", "properties": { "objectid": 2317, "station_code": "134700075073001", "station_name": "Kodur1", "station_type": "Ground Water", "lat": 13.78333333, "long": 75.125, "basin_name": "West flowing rivers from Tadri to Kanyakumari Basin", "sub_basin_name": "Netravati and others", "created_date": "2019-03-22T05:30:00", "State_Name": "Karnataka" }, "geometry": { "type": "Point", "coordinates": [ 75.125000000408775, 13.783333329563312 ] } },
{ "type": "Feature", "properties": { "objectid": 2320, "station_code": "134900076031501", "station_name": "Shivane", "station_type": "Ground Water", "lat": 13.81666667, "long": 76.05416667, "basin_name": "Krishna Basin", "sub_basin_name": "Tungabhadra Lower", "created_date": "2019-03-22T05:30:00", "State_Name": "Karnataka" }, "geometry": { "type": "Point", "coordinates": [ 76.054166670017267, 13.816666669899643 ] } },
{ "type": "Feature", "properties": { "objectid": 2322, "station_code": "134840075434002", "station_name": "Masarahalli A", "station_type": "Ground Water", "lat": 13.81111111, "long": 75.72777778, "basin_name": "Krishna Basin", "sub_basin_name": "Tungabhadra Upper", "created_date": "2019-03-22T05:30:00", "State_Name": "Karnataka" }, "geometry": { "type": "Point", "coordinates": [ 75.727777780412566, 13.811111109880828 ] } },
{ "type": "Feature", "properties": { "objectid": 2323, "station_code": "134756075124001", "station_name": "Kote Kargya", "station_type": "Ground Water", "lat": 13.79888889, "long": 75.21111111, "basin_name": "Krishna Basin", "sub_basin_name": "Tungabhadra Upper", "created_date": "2019-03-22T05:30:00", "State_Name": "Karnataka" }, "geometry": { "type": "Point", "coordinates": [ 75.211111109716768, 13.798888890044678 ] } },
{ "type": "Feature", "properties": { "objectid": 2325, "station_code": "134902075400301", "station_name": "Hiriyur", "station_type": "Ground Water", "lat": 13.81722222, "long": 75.6675, "basin_name": "Krishna Basin", "sub_basin_name": "Tungabhadra Upper", "created_date": "2019-03-22T05:30:00", "State_Name": "Karnataka" }, "geometry": { "type": "Point", "coordinates": [ 75.66750000020383, 13.817222219720627 ] } },
{ "type": "Feature", "properties": { "objectid": 2330, "station_code": "135112076134001", "station_name": "Gutikatte", "station_type": "Ground Water", "lat": 13.85333333, "long": 76.22777778, "basin_name": "Krishna Basin", "sub_basin_name": "Tungabhadra Lower", "created_date": "2019-03-22T05:30:00", "State_Name": "Karnataka" }, "geometry": { "type": "Point", "coordinates": [ 76.227777779854364, 13.853333329609285 ] } },
{ "type": "Feature", "properties": { "objectid": 2335, "station_code": "135145076180501", "station_name": "Hosa Kudavinkatte", "station_type": "Ground Water", "lat": 13.8625, "long": 76.30138889, "basin_name": "Krishna Basin", "sub_basin_name": "Tungabhadra Lower", "created_date": "2019-03-22T05:30:00", "State_Name": "Karnataka" }, "geometry": { "type": "Point", "coordinates": [ 76.301388890008056, 13.862500000433652 ] } },
{ "type": "Feature", "properties": { "objectid": 2336, "station_code": "135145076081001", "station_name": "Hosadurga Rs", "station_type": "Ground Water", "lat": 13.8625, "long": 76.13611111, "basin_name": "Krishna Basin", "sub_basin_name": "Tungabhadra Lower", "created_date": "2019-03-22T05:30:00", "State_Name": "Karnataka" }, "geometry": { "type": "Point", "coordinates": [ 76.136111110137222, 13.862499999785287 ] } },
{ "type": "Feature", "properties": { "objectid": 2337, "station_code": "135010075130001", "station_name": "Shankarahalli", "station_type": "Ground Water", "lat": 13.83611111, "long": 75.21666667, "basin_name": "Krishna Basin", "sub_basin_name": "Tungabhadra Upper", "created_date": "2019-03-22T05:30:00", "State_Name": "Karnataka" }, "geometry": { "type": "Point", "coordinates": [ 75.216666669976092, 13.836111109682443 ] } },
{ "type": "Feature", "properties": { "objectid": 2338, "station_code": "135100075330001", "station_name": "Gajanur", "station_type": "Ground Water", "lat": 13.85, "long": 75.55, "basin_name": "Krishna Basin", "sub_basin_name": "Tungabhadra Upper", "created_date": "2019-03-22T05:30:00", "State_Name": "Karnataka" }, "geometry": { "type": "Point", "coordinates": [ 75.550000000245149, 13.849999999789112 ] } },
{ "type": "Feature", "properties": { "objectid": 2342, "station_code": "135135075332901", "station_name": "Hosahalli", "station_type": "Ground Water", "lat": 13.85972222, "long": 75.55805556, "basin_name": "Krishna Basin", "sub_basin_name": "Tungabhadra Upper", "created_date": "2019-03-22T05:30:00", "State_Name": "Karnataka" }, "geometry": { "type": "Point", "coordinates": [ 75.558055559885361, 13.859722220272269 ] } },
{ "type": "Feature", "properties": { "objectid": 2343, "station_code": "135200075440001", "station_name": "Bhadravati1", "station_type": "Ground Water", "lat": 13.86666667, "long": 75.73333333, "basin_name": "Krishna Basin", "sub_basin_name": "Tungabhadra Upper", "created_date": "2019-03-22T05:30:00", "State_Name": "Karnataka" }, "geometry": { "type": "Point", "coordinates": [ 75.73333333023588, 13.866666669570389 ] } },
{ "type": "Feature", "properties": { "objectid": 2344, "station_code": "135200075433001", "station_name": "Virapur", "station_type": "Ground Water", "lat": 13.86666667, "long": 75.725, "basin_name": "Krishna Basin", "sub_basin_name": "Tungabhadra Upper", "created_date": "2019-03-22T05:30:00", "State_Name": "Karnataka" }, "geometry": { "type": "Point", "coordinates": [ 75.725000000031784, 13.86666667009478 ] } },
{ "type": "Feature", "properties": { "objectid": 2347, "station_code": "135130075123001", "station_name": "Humacha", "station_type": "Ground Water", "lat": 13.85833333, "long": 75.20833333, "basin_name": "Krishna Basin", "sub_basin_name": "Tungabhadra Upper", "created_date": "2019-03-22T05:30:00", "State_Name": "Karnataka" }, "geometry": { "type": "Point", "coordinates": [ 75.208333330439046, 13.858333329603246 ] } },
{ "type": "Feature", "properties": { "objectid": 2350, "station_code": "135400076184501", "station_name": "Gatti hosahalli", "station_type": "Ground Water", "lat": 13.9, "long": 76.3125, "basin_name": "Krishna Basin", "sub_basin_name": "Tungabhadra Lower", "created_date": "2019-03-22T05:30:00", "State_Name": "Karnataka" }, "geometry": { "type": "Point", "coordinates": [ 76.312500000337081, 13.899999999719512 ] } },
{ "type": "Feature", "properties": { "objectid": 2352, "station_code": "135300075370001", "station_name": "Nidigi", "station_type": "Ground Water", "lat": 13.88333333, "long": 75.61666667, "basin_name": "Krishna Basin", "sub_basin_name": "Tungabhadra Upper", "created_date": "2019-03-22T05:30:00", "State_Name": "Karnataka" }, "geometry": { "type": "Point", "coordinates": [ 75.61666667033785, 13.883333330190524 ] } },
{ "type": "Feature", "properties": { "objectid": 2359, "station_code": "135535076110501", "station_name": "R.Gollarahalli", "station_type": "Ground Water", "lat": 13.92638889, "long": 76.18472222, "basin_name": "Krishna Basin", "sub_basin_name": "Tungabhadra Upper", "created_date": "2019-03-22T05:30:00", "State_Name": "Karnataka" }, "geometry": { "type": "Point", "coordinates": [ 76.184722219567846, 13.926388889554463 ] } },
{ "type": "Feature", "properties": { "objectid": 2360, "station_code": "135500075460001", "station_name": "Kudligere", "station_type": "Ground Water", "lat": 13.91666667, "long": 75.76666667000001, "basin_name": "Krishna Basin", "sub_basin_name": "Tungabhadra Upper", "created_date": "2019-03-22T05:30:00", "State_Name": "Karnataka" }, "geometry": { "type": "Point", "coordinates": [ 75.766666669776953, 13.916666670220698 ] } },
{ "type": "Feature", "properties": { "objectid": 2361, "station_code": "135500075380002", "station_name": "Purale", "station_type": "Ground Water", "lat": 13.91666667, "long": 75.63333333, "basin_name": "Krishna Basin", "sub_basin_name": "Tungabhadra Upper", "created_date": "2019-03-22T05:30:00", "State_Name": "Karnataka" }, "geometry": { "type": "Point", "coordinates": [ 75.633333330086344, 13.916666669959573 ] } },
{ "type": "Feature", "properties": { "objectid": 2362, "station_code": "135400075060001", "station_name": "Hosanagara1", "station_type": "Ground Water", "lat": 13.9, "long": 75.1, "basin_name": "West flowing rivers from Tadri to Kanyakumari Basin", "sub_basin_name": "Netravati and others", "created_date": "2019-03-22T05:30:00", "State_Name": "Karnataka" }, "geometry": { "type": "Point", "coordinates": [ 75.100000000424856, 13.900000000080595 ] } },
{ "type": "Feature", "properties": { "objectid": 2364, "station_code": "135600076080001", "station_name": "Gangasamudra", "station_type": "Ground Water", "lat": 13.93333333, "long": 76.13333333, "basin_name": "Krishna Basin", "sub_basin_name": "Tungabhadra Upper", "created_date": "2019-03-22T05:30:00", "State_Name": "Karnataka" }, "geometry": { "type": "Point", "coordinates": [ 76.133333329712173, 13.933333329714012 ] } },
{ "type": "Feature", "properties": { "objectid": 2369, "station_code": "001-CDBNG", "station_name": "Shimoga", "station_type": "Surface Water", "lat": 13.93222222, "long": 75.58972222, "basin_name": "Krishna Basin", "sub_basin_name": "Tungabhadra Upper", "created_date": "2021-12-21T05:30:00", "State_Name": "Karnataka" }, "geometry": { "type": "Point", "coordinates": [ 75.589722222327268, 13.932222221874431 ] } },
{ "type": "Feature", "properties": { "objectid": 2371, "station_code": "135625075451001", "station_name": "Arabilachi", "station_type": "Ground Water", "lat": 13.94027778, "long": 75.75277778, "basin_name": "Krishna Basin", "sub_basin_name": "Tungabhadra Upper", "created_date": "2019-03-22T05:30:00", "State_Name": "Karnataka" }, "geometry": { "type": "Point", "coordinates": [ 75.75277777990938, 13.940277780124182 ] } },
{ "type": "Feature", "properties": { "objectid": 2373, "station_code": "135710076072501", "station_name": "Ramgiri", "station_type": "Ground Water", "lat": 13.95277778, "long": 76.12361111, "basin_name": "Krishna Basin", "sub_basin_name": "Tungabhadra Upper", "created_date": "2019-03-22T05:30:00", "State_Name": "Karnataka" }, "geometry": { "type": "Point", "coordinates": [ 76.123611109725985, 13.952777780139357 ] } },
{ "type": "Feature", "properties": { "objectid": 2375, "station_code": "135720076051501", "station_name": "Talikatte", "station_type": "Ground Water", "lat": 13.95555556, "long": 76.0875, "basin_name": "Krishna Basin", "sub_basin_name": "Tungabhadra Upper", "created_date": "2019-03-22T05:30:00", "State_Name": "Karnataka" }, "geometry": { "type": "Point", "coordinates": [ 76.087499999893737, 13.955555559617634 ] } },
{ "type": "Feature", "properties": { "objectid": 2377, "station_code": "135700075370001", "station_name": "Tevarachatnahalli", "station_type": "Ground Water", "lat": 13.95, "long": 75.61666667, "basin_name": "Krishna Basin", "sub_basin_name": "Tungabhadra Upper", "created_date": "2019-03-22T05:30:00", "State_Name": "Karnataka" }, "geometry": { "type": "Point", "coordinates": [ 75.616666670249401, 13.949999999621179 ] } },
{ "type": "Feature", "properties": { "objectid": 2378, "station_code": "007-CDBNG", "station_name": "HOOVINAHOLE", "station_type": "Surface Water", "lat": 13.9825, "long": 76.74888889, "basin_name": "Krishna Basin", "sub_basin_name": "Tungabhadra Lower", "created_date": "2021-12-21T05:30:00", "State_Name": "Karnataka" }, "geometry": { "type": "Point", "coordinates": [ 76.748888889215962, 13.982500000446461 ] } },
{ "type": "Feature", "properties": { "objectid": 2380, "station_code": "135730075383001", "station_name": "Pillangere", "station_type": "Ground Water", "lat": 13.95833333, "long": 75.64166667000001, "basin_name": "Krishna Basin", "sub_basin_name": "Tungabhadra Upper", "created_date": "2019-03-22T05:30:00", "State_Name": "Karnataka" }, "geometry": { "type": "Point", "coordinates": [ 75.641666670411055, 13.958333329800718 ] } },
{ "type": "Feature", "properties": { "objectid": 2384, "station_code": "006-CDBNG", "station_name": "HOLEHONNUR", "station_type": "Surface Water", "lat": 13.97638889, "long": 75.68527778000001, "basin_name": "Krishna Basin", "sub_basin_name": "Tungabhadra Upper", "created_date": "2021-12-21T05:30:00", "State_Name": "Karnataka" }, "geometry": { "type": "Point", "coordinates": [ 75.685277777592219, 13.976388888938633 ] } },
{ "type": "Feature", "properties": { "objectid": 2385, "station_code": "135845075442501", "station_name": "Arahatodalu", "station_type": "Ground Water", "lat": 13.97916667, "long": 75.74027778, "basin_name": "Krishna Basin", "sub_basin_name": "Tungabhadra Upper", "created_date": "2019-03-22T05:30:00", "State_Name": "Karnataka" }, "geometry": { "type": "Point", "coordinates": [ 75.740277780299309, 13.979166670259609 ] } },
{ "type": "Feature", "properties": { "objectid": 2387, "station_code": "135900075412001", "station_name": "Holehonnur", "station_type": "Ground Water", "lat": 13.98333333, "long": 75.68888889, "basin_name": "Krishna Basin", "sub_basin_name": "Tungabhadra Upper", "created_date": "2019-03-22T05:30:00", "State_Name": "Karnataka" }, "geometry": { "type": "Point", "coordinates": [ 75.688888890144483, 13.983333329669172 ] } },
{ "type": "Feature", "properties": { "objectid": 2388, "station_code": "135900075412002", "station_name": "Melinahanasavadi", "station_type": "Ground Water", "lat": 13.98333333, "long": 75.68888889, "basin_name": "Krishna Basin", "sub_basin_name": "Tungabhadra Upper", "created_date": "2019-03-22T05:30:00", "State_Name": "Karnataka" }, "geometry": { "type": "Point", "coordinates": [ 75.688888890144483, 13.983333329669172 ] } },
{ "type": "Feature", "properties": { "objectid": 2389, "station_code": "135950076050501", "station_name": "Hanumali", "station_type": "Ground Water", "lat": 13.99722222, "long": 76.08472222, "basin_name": "Krishna Basin", "sub_basin_name": "Tungabhadra Upper", "created_date": "2019-03-22T05:30:00", "State_Name": "Karnataka" }, "geometry": { "type": "Point", "coordinates": [ 76.084722220121549, 13.997222219613521 ] } },